aqi,aqi_concentration,city_id,city_name,city_type,condition,country,exercise_desc,exercise_value,humidity,latitude,longitude,main_pollutant,pressure,province,temperature,timezone,url,wind_direction,wind_speed,windows_desc,windows_value
36,8.7,sczgAScnX3y9eDMxC,Pontianak,city,Broken clouds,Indonesia,Enjoy outdoor activities,green,62,-0.04046,109.344387,pm25,1009,West Kalimantan,31,Asia/Jakarta,https://website-api.airvisual.com/v1/cities/sczgAScnX3y9eDMxC?units.temperature=celsius&units.distance=kilometer&AQI=US&language=id,57,4.6,"Open your windows to bring clean, fresh air indoors",green
17,4.1,mAzACTP8KrzXdf3hG,Samarinda,city,Broken clouds,Indonesia,Enjoy outdoor activities,green,53,-0.4948232,117.1436154,pm25,1008,East Kalimantan,31,Asia/Makassar,https://website-api.airvisual.com/v1/cities/mAzACTP8KrzXdf3hG?units.temperature=celsius&units.distance=kilometer&AQI=US&language=id,21,10.1,"Open your windows to bring clean, fresh air indoors",green
17,4,5bc821a941fdcdf1939dc740,Renon - Ritten,city,Broken clouds,Italy,Enjoy outdoor activities,green,66,46.54152,11.45728,pm25,1027,Trentino-Alto Adige,0,Europe/Rome,https://website-api.airvisual.com/v1/cities/5bc821a941fdcdf1939dc740?units.temperature=celsius&units.distance=kilometer&AQI=US&language=id,72,4.5,"Open your windows to bring clean, fresh air indoors",green
11,2.6,5bc8216941fdcdf1939d9878,Jimbaran,city,Few clouds,Indonesia,Enjoy outdoor activities,green,79,-8.79093,115.16006,pm25,1008,Bali,30,Asia/Makassar,https://website-api.airvisual.com/v1/cities/5bc8216941fdcdf1939d9878?units.temperature=celsius&units.distance=kilometer&AQI=US&language=id,310,27.7,"Open your windows to bring clean, fresh air indoors",green
55,14,oTKPAxe9wWuD3j7Hq,Batam,city,Scattered clouds,Indonesia,Sensitive groups should reduce outdoor exercise,orange,78,1.1300779,104.05292069999996,pm25,1012,Riau Islands,29,Asia/Jakarta,https://website-api.airvisual.com/v1/cities/oTKPAxe9wWuD3j7Hq?units.temperature=celsius&units.distance=kilometer&AQI=US&language=id,10,22.3,Close your windows to avoid dirty outdoor air,red
64,18.2,JdnZEae4wBh7yfoJS,Palembang,city,Scattered clouds,Indonesia,Sensitive groups should reduce outdoor exercise,orange,79,-2.9760735,104.7754307,pm25,1010,South Sumatra,29,Asia/Jakarta,https://website-api.airvisual.com/v1/cities/JdnZEae4wBh7yfoJS?units.temperature=celsius&units.distance=kilometer&AQI=US&language=id,330,18.4,Close your windows to avoid dirty outdoor air,red
59,15.8,LembLiKtxzRZbDYP4,Jakarta,city,Broken clouds,Indonesia,Sensitive groups should reduce outdoor exercise,orange,78,-6.236704,106.79324,pm25,1009,Jakarta,28,Asia/Jakarta,https://website-api.airvisual.com/v1/cities/LembLiKtxzRZbDYP4?units.temperature=celsius&units.distance=kilometer&AQI=US&language=id,330,20.5,Close your windows to avoid dirty outdoor air,red
29,7,Q9HEHxJSRpG9DAzQm,Palangkaraya,city,Rain,Indonesia,Enjoy outdoor activities,green,72,-2.2161048,113.913977,pm25,1008,Central Kalimantan,29,Asia/Jakarta,https://website-api.airvisual.com/v1/cities/Q9HEHxJSRpG9DAzQm?units.temperature=celsius&units.distance=kilometer&AQI=US&language=id,45,4.9,"Open your windows to bring clean, fresh air indoors",green
17,4.1,LFTfzqv2cundknLFr,Muara Teweh,city,Broken clouds,Indonesia,Enjoy outdoor activities,green,58,-0.9403,114.8939,pm25,1008,Central Kalimantan,30,Asia/Jakarta,https://website-api.airvisual.com/v1/cities/LFTfzqv2cundknLFr?units.temperature=celsius&units.distance=kilometer&AQI=US&language=id,45,5.9,"Open your windows to bring clean, fresh air indoors",green
58,15.5,cpTRGbKR4aTxGEb5N,Jambi,city,Rain,Indonesia,Sensitive groups should reduce outdoor exercise,orange,79,-1.6,103.61667,pm25,1011,Jambi,28,Asia/Jakarta,https://website-api.airvisual.com/v1/cities/cpTRGbKR4aTxGEb5N?units.temperature=celsius&units.distance=kilometer&AQI=US&language=id,335,8.7,Close your windows to avoid dirty outdoor air,red
22,24.1,PLw5LTjZp3y5wXicB,Indrapuri,city,Broken clouds,Indonesia,Enjoy outdoor activities,green,61,5.404765,95.461666,pm10,1011,Aceh,29,Asia/Jakarta,https://website-api.airvisual.com/v1/cities/PLw5LTjZp3y5wXicB?units.temperature=celsius&units.distance=kilometer&AQI=US&language=id,94,10.5,"Open your windows to bring clean, fresh air indoors",green
34,8.1,dyBBXKJTgDmaCBYix,Banjarbaru,city,Rain,Indonesia,Enjoy outdoor activities,green,74,-3.4572422,114.8103181,pm25,1008,South Kalimantan,29,Asia/Makassar,https://website-api.airvisual.com/v1/cities/dyBBXKJTgDmaCBYix?units.temperature=celsius&units.distance=kilometer&AQI=US&language=id,325,2.1,"Open your windows to bring clean, fresh air indoors",green
34,8.1,oxaWHjY4Rkm9Q7cR6,Buntok,city,Rain,Indonesia,Enjoy outdoor activities,green,74,-3.55,114.767,pm25,1008,Central Kalimantan,29,Asia/Jakarta,https://website-api.airvisual.com/v1/cities/oxaWHjY4Rkm9Q7cR6?units.temperature=celsius&units.distance=kilometer&AQI=US&language=id,325,2.1,"Open your windows to bring clean, fresh air indoors",green
36,8.6,ykP9abDfjCdmgRiTu,Pekanbaru,city,Scattered clouds,Indonesia,Enjoy outdoor activities,green,79,0.5070677,101.4477793,pm25,1010,Riau,29,Asia/Jakarta,https://website-api.airvisual.com/v1/cities/ykP9abDfjCdmgRiTu?units.temperature=celsius&units.distance=kilometer&AQI=US&language=id,40,11.2,"Open your windows to bring clean, fresh air indoors",green
17,4.1,jHeG5pcnFSAfT4vf5,Pangkalan Bun,city,Rain,Indonesia,Enjoy outdoor activities,green,77,-2.688962,111.622398,pm25,1008,Central Kalimantan,30,Asia/Jakarta,https://website-api.airvisual.com/v1/cities/jHeG5pcnFSAfT4vf5?units.temperature=celsius&units.distance=kilometer&AQI=US&language=id,296,2.1,"Open your windows to bring clean, fresh air indoors",green
55,14.1,LgZ3pFZAZmmSH53Z8,Medan,city,Broken clouds,Indonesia,Sensitive groups should reduce outdoor exercise,orange,79,3.5951956,98.6722227,pm25,1011,North Sumatra,28,Asia/Jakarta,https://website-api.airvisual.com/v1/cities/LgZ3pFZAZmmSH53Z8?units.temperature=celsius&units.distance=kilometer&AQI=US&language=id,260,13,Close your windows to avoid dirty outdoor air,red
27,6.5,GTE3k5JbEnFtipb2u,Ubud,city,Few clouds,Indonesia,Enjoy outdoor activities,green,79,-8.505905,115.243533,pm25,1008,Bali,30,Asia/Makassar,https://website-api.airvisual.com/v1/cities/GTE3k5JbEnFtipb2u?units.temperature=celsius&units.distance=kilometer&AQI=US&language=id,310,27.7,"Open your windows to bring clean, fresh air indoors",green
17,4.1,5AiH8XmAKbfYHu9JL,Sampit,city,Rain,Indonesia,Enjoy outdoor activities,green,59,-2.5315,112.9496,pm25,1008,Central Kalimantan,31,Asia/Jakarta,https://website-api.airvisual.com/v1/cities/5AiH8XmAKbfYHu9JL?units.temperature=celsius&units.distance=kilometer&AQI=US&language=id,116,4.6,"Open your windows to bring clean, fresh air indoors",green
48,11.6,QXbmHFGEstQoPaKTp,Denpasar,city,Few clouds,Indonesia,Enjoy outdoor activities,green,79,-8.663225,115.19754,pm25,1008,Bali,30,Asia/Hong_Kong,https://website-api.airvisual.com/v1/cities/QXbmHFGEstQoPaKTp?units.temperature=celsius&units.distance=kilometer&AQI=US&language=id,310,27.7,"Open your windows to bring clean, fresh air indoors",green
29,7,7kF5aMzgANZiRRADq,Badung,city,Few clouds,Indonesia,Enjoy outdoor activities,green,79,-8.566655,115.213997,pm25,1008,Bali,30,Asia/Makassar,https://website-api.airvisual.com/v1/cities/7kF5aMzgANZiRRADq?units.temperature=celsius&units.distance=kilometer&AQI=US&language=id,310,27.7,"Open your windows to bring clean, fresh air indoors",green
51,12.1,5b7a94b36a15c1ae2d8a98ab,Tanjungbalai,city,Rain,Indonesia,Sensitive groups should reduce outdoor exercise,orange,74,2.96667,99.8,pm25,1011,North Sumatra,27,Asia/Jakarta,https://website-api.airvisual.com/v1/cities/5b7a94b36a15c1ae2d8a98ab?units.temperature=celsius&units.distance=kilometer&AQI=US&language=id,294,9.4,Close your windows to avoid dirty outdoor air,red
29,7.1,gQJSBqhHpnf52Z7Qb,Buleleng,city,Broken clouds,Indonesia,Enjoy outdoor activities,green,68,-8.200728,114.851048,pm25,1008,Bali,28,Asia/Jakarta,https://website-api.airvisual.com/v1/cities/gQJSBqhHpnf52Z7Qb?units.temperature=celsius&units.distance=kilometer&AQI=US&language=id,294,6.6,"Open your windows to bring clean, fresh air indoors",green
57,15.1,5b7a94b36a15c1ae2d8a98a6,Tongging,city,Broken clouds,Indonesia,Sensitive groups should reduce outdoor exercise,orange,77,2.8985,98.5231,pm25,1011,North Sumatra,22,Asia/Jakarta,https://website-api.airvisual.com/v1/cities/5b7a94b36a15c1ae2d8a98a6?units.temperature=celsius&units.distance=kilometer&AQI=US&language=id,55,7.3,Close your windows to avoid dirty outdoor air,red
57,15.1,5b7a94b36a15c1ae2d8a98b3,Pematangsiantar,city,Broken clouds,Indonesia,Sensitive groups should reduce outdoor exercise,orange,81,2.9595,99.0687,pm25,1011,North Sumatra,24,Asia/Jakarta,https://website-api.airvisual.com/v1/cities/5b7a94b36a15c1ae2d8a98b3?units.temperature=celsius&units.distance=kilometer&AQI=US&language=id,346,3.1,Close your windows to avoid dirty outdoor air,red
190,130.7,wGKtyd6zFNzgZTxwD,Bogor,city,Broken clouds,Indonesia,Avoid outdoor exercise,red,78,-6.597146899999999,106.80603880000001,pm25,1009,West Java,28,Asia/Jakarta,https://website-api.airvisual.com/v1/cities/wGKtyd6zFNzgZTxwD?units.temperature=celsius&units.distance=kilometer&AQI=US&language=id,330,20.5,Close your windows to avoid dirty outdoor air,red
46,11.1,5b7a94b36a15c1ae2d8a98af,Rantauprapat,city,Rain,Indonesia,Enjoy outdoor activities,green,78,2.1,99.83333,pm25,1011,North Sumatra,29,Asia/Jakarta,https://website-api.airvisual.com/v1/cities/5b7a94b36a15c1ae2d8a98af?units.temperature=celsius&units.distance=kilometer&AQI=US&language=id,265,1,"Open your windows to bring clean, fresh air indoors",green
46,11.1,5b7a94b36a15c1ae2d8a98a7,Tomok Bolon,city,Rain,Indonesia,Enjoy outdoor activities,green,79,2.6521,98.8608,pm25,1011,North Sumatra,22,Asia/Jakarta,https://website-api.airvisual.com/v1/cities/5b7a94b36a15c1ae2d8a98a7?units.temperature=celsius&units.distance=kilometer&AQI=US&language=id,48,3.4,"Open your windows to bring clean, fresh air indoors",green
55,14.1,5b7a94b36a15c1ae2d8a98ac,Sunggal,city,Broken clouds,Indonesia,Sensitive groups should reduce outdoor exercise,orange,79,3.5765,98.6151,pm25,1011,North Sumatra,28,Asia/Jakarta,https://website-api.airvisual.com/v1/cities/5b7a94b36a15c1ae2d8a98ac?units.temperature=celsius&units.distance=kilometer&AQI=US&language=id,260,13,Close your windows to avoid dirty outdoor air,red
42,10.1,5b7a94b36a15c1ae2d8a98aa,Tanjungtiram,city,Broken clouds,Indonesia,Enjoy outdoor activities,green,79,4.0613,98.3699,pm25,1011,North Sumatra,28,Asia/Jakarta,https://website-api.airvisual.com/v1/cities/5b7a94b36a15c1ae2d8a98aa?units.temperature=celsius&units.distance=kilometer&AQI=US&language=id,260,13,"Open your windows to bring clean, fresh air indoors",green
64,18.1,5b7a94b36a15c1ae2d8a98a9,Tebingtinggi,city,Broken clouds,Indonesia,Sensitive groups should reduce outdoor exercise,orange,79,3.3285,99.1625,pm25,1011,North Sumatra,28,Asia/Jakarta,https://website-api.airvisual.com/v1/cities/5b7a94b36a15c1ae2d8a98a9?units.temperature=celsius&units.distance=kilometer&AQI=US&language=id,260,13,Close your windows to avoid dirty outdoor air,red
51,12.1,5b7a94b36a15c1ae2d8a98a8,Teluk Nibung,city,Rain,Indonesia,Sensitive groups should reduce outdoor exercise,orange,74,3.001,99.8164,pm25,1011,North Sumatra,27,Asia/Jakarta,https://website-api.airvisual.com/v1/cities/5b7a94b36a15c1ae2d8a98a8?units.temperature=celsius&units.distance=kilometer&AQI=US&language=id,294,9.4,Close your windows to avoid dirty outdoor air,red
42,10.1,5b7a94b36a15c1ae2d8a98b4,Pangkalan Brandan,city,Broken clouds,Indonesia,Enjoy outdoor activities,green,79,4.0238,98.2782,pm25,1011,North Sumatra,28,Asia/Jakarta,https://website-api.airvisual.com/v1/cities/5b7a94b36a15c1ae2d8a98b4?units.temperature=celsius&units.distance=kilometer&AQI=US&language=id,260,13,"Open your windows to bring clean, fresh air indoors",green
51,12.1,5b7a94b36a15c1ae2d8a98ad,Stabat,city,Broken clouds,Indonesia,Sensitive groups should reduce outdoor exercise,orange,79,3.73335,98.45025,pm25,1011,North Sumatra,28,Asia/Jakarta,https://website-api.airvisual.com/v1/cities/5b7a94b36a15c1ae2d8a98ad?units.temperature=celsius&units.distance=kilometer&AQI=US&language=id,260,13,Close your windows to avoid dirty outdoor air,red
51,12.1,5b7a94b36a15c1ae2d8a98b7,Labuhan Deli,city,Broken clouds,Indonesia,Sensitive groups should reduce outdoor exercise,orange,79,3.7278,98.6738,pm25,1011,North Sumatra,28,Asia/Jakarta,https://website-api.airvisual.com/v1/cities/5b7a94b36a15c1ae2d8a98b7?units.temperature=celsius&units.distance=kilometer&AQI=US&language=id,260,13,Close your windows to avoid dirty outdoor air,red
55,14.1,5b7a94b36a15c1ae2d8a98ba,Deli Tua,city,Broken clouds,Indonesia,Sensitive groups should reduce outdoor exercise,orange,79,3.5078,98.6839,pm25,1011,North Sumatra,28,Asia/Jakarta,https://website-api.airvisual.com/v1/cities/5b7a94b36a15c1ae2d8a98ba?units.temperature=celsius&units.distance=kilometer&AQI=US&language=id,260,13,Close your windows to avoid dirty outdoor air,red
51,12.1,5b7a94b36a15c1ae2d8a98b1,Percut,city,Broken clouds,Indonesia,Sensitive groups should reduce outdoor exercise,orange,79,3.6253,98.864,pm25,1011,North Sumatra,28,Asia/Jakarta,https://website-api.airvisual.com/v1/cities/5b7a94b36a15c1ae2d8a98b1?units.temperature=celsius&units.distance=kilometer&AQI=US&language=id,260,13,Close your windows to avoid dirty outdoor air,red
34,8.1,5b7a94b36a15c1ae2d8a98ae,Sibolga,city,Broken clouds,Indonesia,Enjoy outdoor activities,green,59,1.74016,98.78117,pm25,1011,North Sumatra,30,Asia/Jakarta,https://website-api.airvisual.com/v1/cities/5b7a94b36a15c1ae2d8a98ae?units.temperature=celsius&units.distance=kilometer&AQI=US&language=id,32,2,"Open your windows to bring clean, fresh air indoors",green
34,8.1,5b7a94b36a15c1ae2d8a98b5,Padangsidempuan,city,Rain,Indonesia,Enjoy outdoor activities,green,84,1.37952,99.27146,pm25,1011,North Sumatra,25,Asia/Jakarta,https://website-api.airvisual.com/v1/cities/5b7a94b36a15c1ae2d8a98b5?units.temperature=celsius&units.distance=kilometer&AQI=US&language=id,79,4.5,"Open your windows to bring clean, fresh air indoors",green
57,15.1,5b7a94b36a15c1ae2d8a98b2,Perbaungan,city,Broken clouds,Indonesia,Sensitive groups should reduce outdoor exercise,orange,79,3.5679,98.956,pm25,1011,North Sumatra,28,Asia/Jakarta,https://website-api.airvisual.com/v1/cities/5b7a94b36a15c1ae2d8a98b2?units.temperature=celsius&units.distance=kilometer&AQI=US&language=id,260,13,Close your windows to avoid dirty outdoor air,red
64,18.1,5b7a94b36a15c1ae2d8a98b9,Kabanjahe,city,Broken clouds,Indonesia,Sensitive groups should reduce outdoor exercise,orange,79,3.1001,98.4908,pm25,1011,North Sumatra,28,Asia/Jakarta,https://website-api.airvisual.com/v1/cities/5b7a94b36a15c1ae2d8a98b9?units.temperature=celsius&units.distance=kilometer&AQI=US&language=id,260,13,Close your windows to avoid dirty outdoor air,red
46,11.1,5b7a94b36a15c1ae2d8a98b0,Parapat,city,Rain,Indonesia,Enjoy outdoor activities,green,79,2.663,98.9349,pm25,1011,North Sumatra,22,Asia/Jakarta,https://website-api.airvisual.com/v1/cities/5b7a94b36a15c1ae2d8a98b0?units.temperature=celsius&units.distance=kilometer&AQI=US&language=id,48,3.4,"Open your windows to bring clean, fresh air indoors",green
29,7.1,5b7a94b46a15c1ae2d8a98c3,Sinabang,city,Broken clouds,Indonesia,Enjoy outdoor activities,green,67,2.4803,96.3801,pm25,1011,Aceh,29,Asia/Jakarta,https://website-api.airvisual.com/v1/cities/5b7a94b46a15c1ae2d8a98c3?units.temperature=celsius&units.distance=kilometer&AQI=US&language=id,308,8,"Open your windows to bring clean, fresh air indoors",green
34,8.1,5b7a94b66a15c1ae2d8a991e,Bandar Lampung,city,Broken clouds,Indonesia,Enjoy outdoor activities,green,72,-5.42917,105.26111,pm25,1009,Lampung,28,Asia/Jakarta,https://website-api.airvisual.com/v1/cities/5b7a94b66a15c1ae2d8a991e?units.temperature=celsius&units.distance=kilometer&AQI=US&language=id,320,23,"Open your windows to bring clean, fresh air indoors",green
51,12.1,5b7a94b36a15c1ae2d8a98b8,Kisaran,city,Rain,Indonesia,Sensitive groups should reduce outdoor exercise,orange,72,2.9845,99.6158,pm25,1011,North Sumatra,28,Asia/Jakarta,https://website-api.airvisual.com/v1/cities/5b7a94b36a15c1ae2d8a98b8?units.temperature=celsius&units.distance=kilometer&AQI=US&language=id,305,3.9,Close your windows to avoid dirty outdoor air,red
34,8.1,5b7a94b46a15c1ae2d8a98c7,Meulaboh,city,Broken clouds,Indonesia,Enjoy outdoor activities,green,74,4.14402,96.12664,pm25,1011,Aceh,27,Asia/Jakarta,https://website-api.airvisual.com/v1/cities/5b7a94b46a15c1ae2d8a98c7?units.temperature=celsius&units.distance=kilometer&AQI=US&language=id,8,6.9,"Open your windows to bring clean, fresh air indoors",green
53,13.1,5b7a94b36a15c1ae2d8a98bb,Binjai,city,Broken clouds,Indonesia,Sensitive groups should reduce outdoor exercise,orange,79,3.6001,98.4854,pm25,1011,North Sumatra,28,Asia/Jakarta,https://website-api.airvisual.com/v1/cities/5b7a94b36a15c1ae2d8a98bb?units.temperature=celsius&units.distance=kilometer&AQI=US&language=id,260,13,Close your windows to avoid dirty outdoor air,red
29,7.1,5b7a94b46a15c1ae2d8a98c8,Lhokseumawe,city,Broken clouds,Indonesia,Enjoy outdoor activities,green,67,5.1801,97.1507,pm25,1012,Aceh,27,Asia/Jakarta,https://website-api.airvisual.com/v1/cities/5b7a94b46a15c1ae2d8a98c8?units.temperature=celsius&units.distance=kilometer&AQI=US&language=id,63,5.2,"Open your windows to bring clean, fresh air indoors",green
25,6.1,5b7a94b46a15c1ae2d8a98c5,Sabang,city,Rain,Indonesia,Enjoy outdoor activities,green,80,5.88969,95.31644,pm25,1011,Aceh,27,Asia/Jakarta,https://website-api.airvisual.com/v1/cities/5b7a94b46a15c1ae2d8a98c5?units.temperature=celsius&units.distance=kilometer&AQI=US&language=id,85,29.1,"Open your windows to bring clean, fresh air indoors",green
29,7.1,5b7a94b46a15c1ae2d8a98ca,Bireun,city,Broken clouds,Indonesia,Enjoy outdoor activities,green,74,5.203,96.7009,pm25,1012,Aceh,24,Asia/Jakarta,https://website-api.airvisual.com/v1/cities/5b7a94b46a15c1ae2d8a98ca?units.temperature=celsius&units.distance=kilometer&AQI=US&language=id,50,6.5,"Open your windows to bring clean, fresh air indoors",green
64,18.1,5b7a94b36a15c1ae2d8a98bc,Berastagi,city,Broken clouds,Indonesia,Sensitive groups should reduce outdoor exercise,orange,79,3.19468,98.50889,pm25,1011,North Sumatra,28,Asia/Jakarta,https://website-api.airvisual.com/v1/cities/5b7a94b36a15c1ae2d8a98bc?units.temperature=celsius&units.distance=kilometer&AQI=US&language=id,260,13,Close your windows to avoid dirty outdoor air,red
25,6.1,5b7a94b46a15c1ae2d8a98c6,Reuleuet,city,Broken clouds,Indonesia,Enjoy outdoor activities,green,74,5.21667,96.28333,pm25,1012,Aceh,24,Asia/Jakarta,https://website-api.airvisual.com/v1/cities/5b7a94b46a15c1ae2d8a98c6?units.temperature=celsius&units.distance=kilometer&AQI=US&language=id,50,6.5,"Open your windows to bring clean, fresh air indoors",green
42,10.1,5b7a94b46a15c1ae2d8a98c2,Singkil,city,Broken clouds,Indonesia,Enjoy outdoor activities,green,63,2.2874,97.7884,pm25,1011,Aceh,30,Asia/Jakarta,https://website-api.airvisual.com/v1/cities/5b7a94b46a15c1ae2d8a98c2?units.temperature=celsius&units.distance=kilometer&AQI=US&language=id,311,3.3,"Open your windows to bring clean, fresh air indoors",green
21,5.1,5b7a94b46a15c1ae2d8a98c4,Sigli,city,Rain,Indonesia,Enjoy outdoor activities,green,76,5.3848,95.9609,pm25,1012,Aceh,27,Asia/Jakarta,https://website-api.airvisual.com/v1/cities/5b7a94b46a15c1ae2d8a98c4?units.temperature=celsius&units.distance=kilometer&AQI=US&language=id,100,15.8,"Open your windows to bring clean, fresh air indoors",green
21,5.1,5b7a94b46a15c1ae2d8a98cb,Banda Aceh,city,Broken clouds,Indonesia,Enjoy outdoor activities,green,61,5.54167,95.33333,pm25,1011,Aceh,29,Asia/Jakarta,https://website-api.airvisual.com/v1/cities/5b7a94b46a15c1ae2d8a98cb?units.temperature=celsius&units.distance=kilometer&AQI=US&language=id,94,10.5,"Open your windows to bring clean, fresh air indoors",green
34,8.1,5b7a94b46a15c1ae2d8a98c9,Langsa,city,Scattered clouds,Indonesia,Enjoy outdoor activities,green,61,4.4683,97.9683,pm25,1012,Aceh,30,Asia/Jakarta,https://website-api.airvisual.com/v1/cities/5b7a94b46a15c1ae2d8a98c9?units.temperature=celsius&units.distance=kilometer&AQI=US&language=id,324,7.7,"Open your windows to bring clean, fresh air indoors",green
34,8.1,5b7a94b46a15c1ae2d8a98d0,Sewon,city,Rain,Indonesia,Enjoy outdoor activities,green,79,-7.87639,110.35889,pm25,1009,Yogyakarta,29,Asia/Jakarta,https://website-api.airvisual.com/v1/cities/5b7a94b46a15c1ae2d8a98d0?units.temperature=celsius&units.distance=kilometer&AQI=US&language=id,210,11.2,"Open your windows to bring clean, fresh air indoors",green
51,12.1,5b7a94b36a15c1ae2d8a98bd,Belawan,city,Broken clouds,Indonesia,Sensitive groups should reduce outdoor exercise,orange,79,3.7755,98.6832,pm25,1011,North Sumatra,28,Asia/Jakarta,https://website-api.airvisual.com/v1/cities/5b7a94b36a15c1ae2d8a98bd?units.temperature=celsius&units.distance=kilometer&AQI=US&language=id,260,13,Close your windows to avoid dirty outdoor air,red
53,13.1,5b7a94b36a15c1ae2d8a98bf,Tuktuk Sonak,city,Rain,Indonesia,Sensitive groups should reduce outdoor exercise,orange,79,2.6689,98.8576,pm25,1011,North Sumatra,22,Asia/Jakarta,https://website-api.airvisual.com/v1/cities/5b7a94b36a15c1ae2d8a98bf?units.temperature=celsius&units.distance=kilometer&AQI=US&language=id,48,3.4,Close your windows to avoid dirty outdoor air,red
59,16.1,5b7a94b36a15c1ae2d8a98c0,Pekan Bahapal,city,Broken clouds,Indonesia,Sensitive groups should reduce outdoor exercise,orange,81,3.11313,99.17352,pm25,1011,North Sumatra,24,Asia/Jakarta,https://website-api.airvisual.com/v1/cities/5b7a94b36a15c1ae2d8a98c0?units.temperature=celsius&units.distance=kilometer&AQI=US&language=id,346,3.1,Close your windows to avoid dirty outdoor air,red
34,8.1,5b7a94b46a15c1ae2d8a98d2,Pandak,city,Rain,Indonesia,Enjoy outdoor activities,green,79,-7.91306,110.29361,pm25,1009,Yogyakarta,29,Asia/Jakarta,https://website-api.airvisual.com/v1/cities/5b7a94b46a15c1ae2d8a98d2?units.temperature=celsius&units.distance=kilometer&AQI=US&language=id,210,11.2,"Open your windows to bring clean, fresh air indoors",green
34,8.1,5b7a94b46a15c1ae2d8a98ce,Srandakan,city,Rain,Indonesia,Enjoy outdoor activities,green,71,-7.93861,110.25056,pm25,1009,Yogyakarta,28,Asia/Jakarta,https://website-api.airvisual.com/v1/cities/5b7a94b46a15c1ae2d8a98ce?units.temperature=celsius&units.distance=kilometer&AQI=US&language=id,179,13,"Open your windows to bring clean, fresh air indoors",green
46,11.1,5b7a94b46a15c1ae2d8a98e3,Solok,city,Broken clouds,Indonesia,Enjoy outdoor activities,green,62,-0.8006,100.6571,pm25,1011,West Sumatra,27,Asia/Jakarta,https://website-api.airvisual.com/v1/cities/5b7a94b46a15c1ae2d8a98e3?units.temperature=celsius&units.distance=kilometer&AQI=US&language=id,31,6.6,"Open your windows to bring clean, fresh air indoors",green
29,7.1,5b7a94b46a15c1ae2d8a98df,Lubuklinggau,city,Rain,Indonesia,Enjoy outdoor activities,green,88,-3.2945,102.8614,pm25,1011,South Sumatra,25,Asia/Jakarta,https://website-api.airvisual.com/v1/cities/5b7a94b46a15c1ae2d8a98df?units.temperature=celsius&units.distance=kilometer&AQI=US&language=id,7,5,"Open your windows to bring clean, fresh air indoors",green
55,14.1,5b7a94b46a15c1ae2d8a98cf,Sleman,city,Rain,Indonesia,Sensitive groups should reduce outdoor exercise,orange,79,-7.71556,110.35556,pm25,1009,Yogyakarta,29,Asia/Jakarta,https://website-api.airvisual.com/v1/cities/5b7a94b46a15c1ae2d8a98cf?units.temperature=celsius&units.distance=kilometer&AQI=US&language=id,210,11.2,Close your windows to avoid dirty outdoor air,red
34,8.1,5b7a94b46a15c1ae2d8a98d6,Bantul,city,Rain,Indonesia,Enjoy outdoor activities,green,79,-7.88806,110.32889,pm25,1009,Yogyakarta,29,Asia/Jakarta,https://website-api.airvisual.com/v1/cities/5b7a94b46a15c1ae2d8a98d6?units.temperature=celsius&units.distance=kilometer&AQI=US&language=id,210,11.2,"Open your windows to bring clean, fresh air indoors",green
34,8.1,5b7a94b46a15c1ae2d8a98cd,Yogyakarta,city,Rain,Indonesia,Enjoy outdoor activities,green,79,-7.80139,110.36472,pm25,1009,Yogyakarta,29,Asia/Jakarta,https://website-api.airvisual.com/v1/cities/5b7a94b46a15c1ae2d8a98cd?units.temperature=celsius&units.distance=kilometer&AQI=US&language=id,210,11.2,"Open your windows to bring clean, fresh air indoors",green
17,4,5b7a94b46a15c1ae2d8a98e7,Padang,city,Broken clouds,Indonesia,Enjoy outdoor activities,green,62,-0.94924,100.35427,pm25,1011,West Sumatra,27,Asia/Jakarta,https://website-api.airvisual.com/v1/cities/5b7a94b46a15c1ae2d8a98e7?units.temperature=celsius&units.distance=kilometer&AQI=US&language=id,31,6.6,"Open your windows to bring clean, fresh air indoors",green
55,14.1,5b7a94b46a15c1ae2d8a98d3,Melati,city,Rain,Indonesia,Sensitive groups should reduce outdoor exercise,orange,79,-7.73333,110.36667,pm25,1009,Yogyakarta,29,Asia/Jakarta,https://website-api.airvisual.com/v1/cities/5b7a94b46a15c1ae2d8a98d3?units.temperature=celsius&units.distance=kilometer&AQI=US&language=id,210,11.2,Close your windows to avoid dirty outdoor air,red
34,8.1,5b7a94b46a15c1ae2d8a98e0,Lahat,city,Rain,Indonesia,Enjoy outdoor activities,green,85,-3.78514,103.54279,pm25,1010,South Sumatra,23,Asia/Jakarta,https://website-api.airvisual.com/v1/cities/5b7a94b46a15c1ae2d8a98e0?units.temperature=celsius&units.distance=kilometer&AQI=US&language=id,327,4.6,"Open your windows to bring clean, fresh air indoors",green
29,7.1,5b7a94b46a15c1ae2d8a98e4,Sijunjung,city,Rain,Indonesia,Enjoy outdoor activities,green,72,-0.7005,100.9774,pm25,1011,West Sumatra,27,Asia/Jakarta,https://website-api.airvisual.com/v1/cities/5b7a94b46a15c1ae2d8a98e4?units.temperature=celsius&units.distance=kilometer&AQI=US&language=id,36,4,"Open your windows to bring clean, fresh air indoors",green
29,7.1,5b7a94b46a15c1ae2d8a98e5,Payakumbuh,city,Rain,Indonesia,Enjoy outdoor activities,green,86,-0.2159,100.6334,pm25,1011,West Sumatra,23,Asia/Jakarta,https://website-api.airvisual.com/v1/cities/5b7a94b46a15c1ae2d8a98e5?units.temperature=celsius&units.distance=kilometer&AQI=US&language=id,45,6.4,"Open your windows to bring clean, fresh air indoors",green
29,7.1,5b7a94b46a15c1ae2d8a98de,Pagar Alam,city,Rain,Indonesia,Enjoy outdoor activities,green,85,-4.02506,103.24694,pm25,1010,South Sumatra,23,Asia/Jakarta,https://website-api.airvisual.com/v1/cities/5b7a94b46a15c1ae2d8a98de?units.temperature=celsius&units.distance=kilometer&AQI=US&language=id,327,4.6,"Open your windows to bring clean, fresh air indoors",green
34,8.1,5b7a94b46a15c1ae2d8a98e1,Baturaja,city,Rain,Indonesia,Enjoy outdoor activities,green,65,-4.12891,104.16695,pm25,1010,South Sumatra,29,Asia/Jakarta,https://website-api.airvisual.com/v1/cities/5b7a94b46a15c1ae2d8a98e1?units.temperature=celsius&units.distance=kilometer&AQI=US&language=id,324,12.7,"Open your windows to bring clean, fresh air indoors",green
29,7.1,5b7a94b46a15c1ae2d8a98e8,Bukittinggi,city,Rain,Indonesia,Enjoy outdoor activities,green,85,-0.30907,100.37055,pm25,1011,West Sumatra,23,Asia/Jakarta,https://website-api.airvisual.com/v1/cities/5b7a94b46a15c1ae2d8a98e8?units.temperature=celsius&units.distance=kilometer&AQI=US&language=id,81,7.1,"Open your windows to bring clean, fresh air indoors",green
55,14.1,5b7a94b46a15c1ae2d8a98d8,Gamping Lor,city,Rain,Indonesia,Sensitive groups should reduce outdoor exercise,orange,79,-7.79556,110.32639,pm25,1009,Yogyakarta,29,Asia/Jakarta,https://website-api.airvisual.com/v1/cities/5b7a94b46a15c1ae2d8a98d8?units.temperature=celsius&units.distance=kilometer&AQI=US&language=id,210,11.2,Close your windows to avoid dirty outdoor air,red
34,8.1,5b7a94b46a15c1ae2d8a98db,Tanjungagung,city,Rain,Indonesia,Enjoy outdoor activities,green,65,-3.93728,103.80465,pm25,1010,South Sumatra,29,Asia/Jakarta,https://website-api.airvisual.com/v1/cities/5b7a94b46a15c1ae2d8a98db?units.temperature=celsius&units.distance=kilometer&AQI=US&language=id,324,12.7,"Open your windows to bring clean, fresh air indoors",green
38,9.1,5b7a94b46a15c1ae2d8a98dc,Prabumulih,city,Rain,Indonesia,Enjoy outdoor activities,green,69,-3.43447,104.23056,pm25,1010,South Sumatra,28,Asia/Jakarta,https://website-api.airvisual.com/v1/cities/5b7a94b46a15c1ae2d8a98dc?units.temperature=celsius&units.distance=kilometer&AQI=US&language=id,319,9.4,"Open your windows to bring clean, fresh air indoors",green
34,8.1,5b7a94b46a15c1ae2d8a98d7,Bambanglipuro,city,Rain,Indonesia,Enjoy outdoor activities,green,71,-7.95,110.28333,pm25,1009,Yogyakarta,28,Asia/Jakarta,https://website-api.airvisual.com/v1/cities/5b7a94b46a15c1ae2d8a98d7?units.temperature=celsius&units.distance=kilometer&AQI=US&language=id,179,13,"Open your windows to bring clean, fresh air indoors",green
55,14.1,5b7a94b46a15c1ae2d8a98d4,Godean,city,Rain,Indonesia,Sensitive groups should reduce outdoor exercise,orange,79,-7.76972,110.29389,pm25,1009,Yogyakarta,29,Asia/Jakarta,https://website-api.airvisual.com/v1/cities/5b7a94b46a15c1ae2d8a98d4?units.temperature=celsius&units.distance=kilometer&AQI=US&language=id,210,11.2,Close your windows to avoid dirty outdoor air,red
42,10.1,5b7a94b46a15c1ae2d8a98e6,Pariaman,city,Broken clouds,Indonesia,Enjoy outdoor activities,green,67,-0.61898,100.11997,pm25,1010,West Sumatra,28,Asia/Jakarta,https://website-api.airvisual.com/v1/cities/5b7a94b46a15c1ae2d8a98e6?units.temperature=celsius&units.distance=kilometer&AQI=US&language=id,277,6.7,"Open your windows to bring clean, fresh air indoors",green
9,2.1,5b7a94b46a15c1ae2d8a98ed,"Laikit, Laikit II (Dimembe)",city,Scattered clouds,Indonesia,Enjoy outdoor activities,green,70,1.48833,124.97444,pm25,1008,North Sulawesi,30,Asia/Makassar,https://website-api.airvisual.com/v1/cities/5b7a94b46a15c1ae2d8a98ed?units.temperature=celsius&units.distance=kilometer&AQI=US&language=id,340,13,"Open your windows to bring clean, fresh air indoors",green
34,8.1,5b7a94b46a15c1ae2d8a98d1,Pundong,city,Rain,Indonesia,Enjoy outdoor activities,green,79,-7.95222,110.34861,pm25,1009,Yogyakarta,29,Asia/Jakarta,https://website-api.airvisual.com/v1/cities/5b7a94b46a15c1ae2d8a98d1?units.temperature=celsius&units.distance=kilometer&AQI=US&language=id,210,11.2,"Open your windows to bring clean, fresh air indoors",green
34,8.1,5b7a94b46a15c1ae2d8a98d9,Kasihan,city,Rain,Indonesia,Enjoy outdoor activities,green,79,-7.82694,110.32917,pm25,1009,Yogyakarta,29,Asia/Jakarta,https://website-api.airvisual.com/v1/cities/5b7a94b46a15c1ae2d8a98d9?units.temperature=celsius&units.distance=kilometer&AQI=US&language=id,210,11.2,"Open your windows to bring clean, fresh air indoors",green
21,5,5b7a94b46a15c1ae2d8a98ec,Manado,city,Scattered clouds,Indonesia,Enjoy outdoor activities,green,70,1.48218,124.84892,pm25,1008,North Sulawesi,30,Asia/Makassar,https://website-api.airvisual.com/v1/cities/5b7a94b46a15c1ae2d8a98ec?units.temperature=celsius&units.distance=kilometer&AQI=US&language=id,340,13,"Open your windows to bring clean, fresh air indoors",green
13,3.1,5b7a94b46a15c1ae2d8a98ea,Tondano,city,Scattered clouds,Indonesia,Enjoy outdoor activities,green,70,1.3054,124.91261,pm25,1008,North Sulawesi,30,Asia/Makassar,https://website-api.airvisual.com/v1/cities/5b7a94b46a15c1ae2d8a98ea?units.temperature=celsius&units.distance=kilometer&AQI=US&language=id,340,13,"Open your windows to bring clean, fresh air indoors",green
34,8.1,5b7a94b56a15c1ae2d8a9903,Balaipungut,city,Scattered clouds,Indonesia,Enjoy outdoor activities,green,79,1.05949,101.29054,pm25,1010,Riau,29,Asia/Jakarta,https://website-api.airvisual.com/v1/cities/5b7a94b56a15c1ae2d8a9903?units.temperature=celsius&units.distance=kilometer&AQI=US&language=id,40,11.2,"Open your windows to bring clean, fresh air indoors",green
13,3.1,5b7a94b56a15c1ae2d8a98fc,Parepare,city,Rain,Indonesia,Enjoy outdoor activities,green,74,-4.0135,119.6255,pm25,1009,South Sulawesi,28,Asia/Makassar,https://website-api.airvisual.com/v1/cities/5b7a94b56a15c1ae2d8a98fc?units.temperature=celsius&units.distance=kilometer&AQI=US&language=id,210,16.5,"Open your windows to bring clean, fresh air indoors",green
108,38.2,5b7a94b86a15c1ae2d8a99f3,Depok,city,Broken clouds,Indonesia,Everyone should reduce outdoor exercise,red,78,-6.4,106.81861,pm25,1009,West Java,28,Asia/Jakarta,https://website-api.airvisual.com/v1/cities/5b7a94b86a15c1ae2d8a99f3?units.temperature=celsius&units.distance=kilometer&AQI=US&language=id,330,20.5,Close your windows to avoid dirty outdoor air,red
17,4.1,5b7a94b56a15c1ae2d8a98f9,Sinjai,city,Broken clouds,Indonesia,Enjoy outdoor activities,green,69,-5.1241,120.253,pm25,1008,South Sulawesi,27,Asia/Makassar,https://website-api.airvisual.com/v1/cities/5b7a94b56a15c1ae2d8a98f9?units.temperature=celsius&units.distance=kilometer&AQI=US&language=id,40,3.1,"Open your windows to bring clean, fresh air indoors",green
13,3.1,5b7a94b46a15c1ae2d8a98eb,Tomohon,city,Scattered clouds,Indonesia,Enjoy outdoor activities,green,70,1.31678,124.80379,pm25,1008,North Sulawesi,30,Asia/Makassar,https://website-api.airvisual.com/v1/cities/5b7a94b46a15c1ae2d8a98eb?units.temperature=celsius&units.distance=kilometer&AQI=US&language=id,340,13,"Open your windows to bring clean, fresh air indoors",green
38,9.1,5b7a94b56a15c1ae2d8a9902,Dumai,city,Scattered clouds,Indonesia,Enjoy outdoor activities,green,58,1.66711,101.44316,pm25,1011,Riau,30,Asia/Jakarta,https://website-api.airvisual.com/v1/cities/5b7a94b56a15c1ae2d8a9902?units.temperature=celsius&units.distance=kilometer&AQI=US&language=id,49,10.4,"Open your windows to bring clean, fresh air indoors",green
21,5.1,5b7a94b56a15c1ae2d8a98f1,Katabu,city,Rain,Indonesia,Enjoy outdoor activities,green,73,-4.9333,122.5167,pm25,1008,Sulawesi Tenggara,30,Asia/Makassar,https://website-api.airvisual.com/v1/cities/5b7a94b56a15c1ae2d8a98f1?units.temperature=celsius&units.distance=kilometer&AQI=US&language=id,19,1.9,"Open your windows to bring clean, fresh air indoors",green
9,2.1,5b7a94b46a15c1ae2d8a98ee,Bitung,city,Scattered clouds,Indonesia,Enjoy outdoor activities,green,70,1.45697,125.1895,pm25,1008,North Sulawesi,30,Asia/Makassar,https://website-api.airvisual.com/v1/cities/5b7a94b46a15c1ae2d8a98ee?units.temperature=celsius&units.distance=kilometer&AQI=US&language=id,340,13,"Open your windows to bring clean, fresh air indoors",green
21,5.1,5b7a94b66a15c1ae2d8a9911,Pototano,city,Clear sky,Indonesia,Enjoy outdoor activities,green,58,-8.4126,117.4811,pm25,1008,West Nusa Tenggara,31,Asia/Makassar,https://website-api.airvisual.com/v1/cities/5b7a94b66a15c1ae2d8a9911?units.temperature=celsius&units.distance=kilometer&AQI=US&language=id,29,6.7,"Open your windows to bring clean, fresh air indoors",green
17,4.1,5b7a94b56a15c1ae2d8a98fe,Maros,city,Scattered clouds,Indonesia,Enjoy outdoor activities,green,79,-5.006,119.5727,pm25,1009,South Sulawesi,30,Asia/Makassar,https://website-api.airvisual.com/v1/cities/5b7a94b56a15c1ae2d8a98fe?units.temperature=celsius&units.distance=kilometer&AQI=US&language=id,360,5.4,"Open your windows to bring clean, fresh air indoors",green
9,2.1,5b7a94b56a15c1ae2d8a98f3,Poso,city,Broken clouds,Indonesia,Enjoy outdoor activities,green,78,-1.3959,120.7524,pm25,1009,Southeast Sulawesi,23,Asia/Makassar,https://website-api.airvisual.com/v1/cities/5b7a94b56a15c1ae2d8a98f3?units.temperature=celsius&units.distance=kilometer&AQI=US&language=id,344,4,"Open your windows to bring clean, fresh air indoors",green
17,4.1,5b7a94b56a15c1ae2d8a9907,Ruteng,city,Rain,Indonesia,Enjoy outdoor activities,green,57,-8.61139,120.46444,pm25,1008,East Nusa Tenggara,28,Asia/Makassar,https://website-api.airvisual.com/v1/cities/5b7a94b56a15c1ae2d8a9907?units.temperature=celsius&units.distance=kilometer&AQI=US&language=id,332,6.6,"Open your windows to bring clean, fresh air indoors",green
17,4.1,5b7a94b56a15c1ae2d8a990a,Kefamenanu,city,Broken clouds,Indonesia,Enjoy outdoor activities,green,50,-9.44667,124.47806,pm25,1007,East Nusa Tenggara,29,Asia/Makassar,https://website-api.airvisual.com/v1/cities/5b7a94b56a15c1ae2d8a990a?units.temperature=celsius&units.distance=kilometer&AQI=US&language=id,10,5.3,"Open your windows to bring clean, fresh air indoors",green
17,4.1,5b7a94b56a15c1ae2d8a990c,Atambua,city,Broken clouds,Indonesia,Enjoy outdoor activities,green,65,-9.10611,124.8925,pm25,1007,East Nusa Tenggara,28,Asia/Makassar,https://website-api.airvisual.com/v1/cities/5b7a94b56a15c1ae2d8a990c?units.temperature=celsius&units.distance=kilometer&AQI=US&language=id,306,8.7,"Open your windows to bring clean, fresh air indoors",green
21,5.1,5b7a94b66a15c1ae2d8a990f,Sumbawa Besar,city,Clear sky,Indonesia,Enjoy outdoor activities,green,58,-8.49317,117.42024,pm25,1008,West Nusa Tenggara,31,Asia/Makassar,https://website-api.airvisual.com/v1/cities/5b7a94b66a15c1ae2d8a990f?units.temperature=celsius&units.distance=kilometer&AQI=US&language=id,29,6.7,"Open your windows to bring clean, fresh air indoors",green
17,4.1,5b7a94b56a15c1ae2d8a9905,Waingapu,city,Broken clouds,Indonesia,Enjoy outdoor activities,green,76,-9.6567,120.2641,pm25,1008,East Nusa Tenggara,28,Asia/Makassar,https://website-api.airvisual.com/v1/cities/5b7a94b56a15c1ae2d8a9905?units.temperature=celsius&units.distance=kilometer&AQI=US&language=id,317,20.5,"Open your windows to bring clean, fresh air indoors",green
21,5.1,5b7a94b66a15c1ae2d8a9910,Praya,city,Scattered clouds,Indonesia,Enjoy outdoor activities,green,62,-8.70536,116.27036,pm25,1009,West Nusa Tenggara,32,Asia/Makassar,https://website-api.airvisual.com/v1/cities/5b7a94b66a15c1ae2d8a9910?units.temperature=celsius&units.distance=kilometer&AQI=US&language=id,300,18.4,"Open your windows to bring clean, fresh air indoors",green
13,3.1,5b7a94b56a15c1ae2d8a98f4,Palu,city,Broken clouds,Indonesia,Enjoy outdoor activities,green,60,-0.90833,119.87083,pm25,1009,Southeast Sulawesi,28,Asia/Makassar,https://website-api.airvisual.com/v1/cities/5b7a94b56a15c1ae2d8a98f4?units.temperature=celsius&units.distance=kilometer&AQI=US&language=id,351,4.8,"Open your windows to bring clean, fresh air indoors",green
17,4.1,5b7a94b56a15c1ae2d8a990b,Ende,city,Scattered clouds,Indonesia,Enjoy outdoor activities,green,72,-8.8432,121.6623,pm25,1008,East Nusa Tenggara,28,Asia/Makassar,https://website-api.airvisual.com/v1/cities/5b7a94b56a15c1ae2d8a990b?units.temperature=celsius&units.distance=kilometer&AQI=US&language=id,218,10.4,"Open your windows to bring clean, fresh air indoors",green
13,3.1,5b7a94b56a15c1ae2d8a98fa,Sengkang,city,Scattered clouds,Indonesia,Enjoy outdoor activities,green,46,-4.1279,120.0297,pm25,1009,South Sulawesi,34,Asia/Makassar,https://website-api.airvisual.com/v1/cities/5b7a94b56a15c1ae2d8a98fa?units.temperature=celsius&units.distance=kilometer&AQI=US&language=id,285,7.6,"Open your windows to bring clean, fresh air indoors",green
17,4.1,5b7a94b56a15c1ae2d8a9906,Soe,city,Broken clouds,Indonesia,Enjoy outdoor activities,green,46,-9.86071,124.28395,pm25,1007,East Nusa Tenggara,30,Asia/Makassar,https://website-api.airvisual.com/v1/cities/5b7a94b56a15c1ae2d8a9906?units.temperature=celsius&units.distance=kilometer&AQI=US&language=id,222,7.7,"Open your windows to bring clean, fresh air indoors",green
17,4.1,5b7a94b56a15c1ae2d8a98f7,Watampone,city,Scattered clouds,Indonesia,Enjoy outdoor activities,green,74,-4.5386,120.3279,pm25,1008,South Sulawesi,27,Asia/Makassar,https://website-api.airvisual.com/v1/cities/5b7a94b56a15c1ae2d8a98f7?units.temperature=celsius&units.distance=kilometer&AQI=US&language=id,87,7.4,"Open your windows to bring clean, fresh air indoors",green
17,4.1,5b7a94b56a15c1ae2d8a98fb,Rantepao,city,Rain,Indonesia,Enjoy outdoor activities,green,82,-2.9701,119.8978,pm25,1009,South Sulawesi,25,Asia/Makassar,https://website-api.airvisual.com/v1/cities/5b7a94b56a15c1ae2d8a98fb?units.temperature=celsius&units.distance=kilometer&AQI=US&language=id,83,3.1,"Open your windows to bring clean, fresh air indoors",green
9,2.1,5b7a94b56a15c1ae2d8a98f5,Luwuk,city,Broken clouds,Indonesia,Enjoy outdoor activities,green,73,-0.9516,122.7875,pm25,1008,Southeast Sulawesi,28,Asia/Makassar,https://website-api.airvisual.com/v1/cities/5b7a94b56a15c1ae2d8a98f5?units.temperature=celsius&units.distance=kilometer&AQI=US&language=id,158,4.8,"Open your windows to bring clean, fresh air indoors",green
17,4.1,5b7a94b56a15c1ae2d8a98f0,Kendari,city,Rain,Indonesia,Enjoy outdoor activities,green,83,-3.9778,122.51507,pm25,1008,Sulawesi Tenggara,28,Asia/Makassar,https://website-api.airvisual.com/v1/cities/5b7a94b56a15c1ae2d8a98f0?units.temperature=celsius&units.distance=kilometer&AQI=US&language=id,43,4.6,"Open your windows to bring clean, fresh air indoors",green
17,4.1,5b7a94b56a15c1ae2d8a9908,Maumere,city,Broken clouds,Indonesia,Enjoy outdoor activities,green,67,-8.6199,122.2111,pm25,1008,East Nusa Tenggara,28,Asia/Makassar,https://website-api.airvisual.com/v1/cities/5b7a94b56a15c1ae2d8a9908?units.temperature=celsius&units.distance=kilometer&AQI=US&language=id,1,7.3,"Open your windows to bring clean, fresh air indoors",green
27,6.5,5b7a94b56a15c1ae2d8a98f8,Makassar,city,Scattered clouds,Indonesia,Enjoy outdoor activities,green,79,-5.14861,119.43194,pm25,1009,South Sulawesi,30,Asia/Makassar,https://website-api.airvisual.com/v1/cities/5b7a94b56a15c1ae2d8a98f8?units.temperature=celsius&units.distance=kilometer&AQI=US&language=id,360,5.4,"Open your windows to bring clean, fresh air indoors",green
21,5.1,5b7a94b56a15c1ae2d8a98fd,Palopo,city,Rain,Indonesia,Enjoy outdoor activities,green,82,-2.9925,120.19694,pm25,1009,South Sulawesi,25,Asia/Makassar,https://website-api.airvisual.com/v1/cities/5b7a94b56a15c1ae2d8a98fd?units.temperature=celsius&units.distance=kilometer&AQI=US&language=id,83,3.1,"Open your windows to bring clean, fresh air indoors",green
17,4.1,5b7a94b56a15c1ae2d8a9909,Labuan Bajo,city,Broken clouds,Indonesia,Enjoy outdoor activities,green,63,-8.4964,119.8877,pm25,1008,East Nusa Tenggara,30,Asia/Makassar,https://website-api.airvisual.com/v1/cities/5b7a94b56a15c1ae2d8a9909?units.temperature=celsius&units.distance=kilometer&AQI=US&language=id,302,8.7,"Open your windows to bring clean, fresh air indoors",green
25,6.1,5b7a94b56a15c1ae2d8a98ff,Galesong,city,Scattered clouds,Indonesia,Enjoy outdoor activities,green,79,-5.3166,119.3661,pm25,1009,South Sulawesi,30,Asia/Makassar,https://website-api.airvisual.com/v1/cities/5b7a94b56a15c1ae2d8a98ff?units.temperature=celsius&units.distance=kilometer&AQI=US&language=id,360,5.4,"Open your windows to bring clean, fresh air indoors",green
21,5.1,5b7a94b56a15c1ae2d8a990d,Kupang,city,Scattered clouds,Indonesia,Enjoy outdoor activities,green,79,-10.17083,123.60694,pm25,1008,East Nusa Tenggara,30,Asia/Makassar,https://website-api.airvisual.com/v1/cities/5b7a94b56a15c1ae2d8a990d?units.temperature=celsius&units.distance=kilometer&AQI=US&language=id,300,14.8,"Open your windows to bring clean, fresh air indoors",green
17,4.1,5b7a94b76a15c1ae2d8a9929,Pangkalanbuun,city,Rain,Indonesia,Enjoy outdoor activities,green,77,-2.6832,111.6259,pm25,1008,Central Kalimantan,30,Asia/Pontianak,https://website-api.airvisual.com/v1/cities/5b7a94b76a15c1ae2d8a9929?units.temperature=celsius&units.distance=kilometer&AQI=US&language=id,296,2.1,"Open your windows to bring clean, fresh air indoors",green
13,3.1,5b7a94b66a15c1ae2d8a991b,Amahai,city,Broken clouds,Indonesia,Enjoy outdoor activities,green,71,-3.33984,128.91975,pm25,1007,Maluku,28,Asia/Jayapura,https://website-api.airvisual.com/v1/cities/5b7a94b66a15c1ae2d8a991b?units.temperature=celsius&units.distance=kilometer&AQI=US&language=id,238,2.1,"Open your windows to bring clean, fresh air indoors",green
17,4.1,5b7a94b66a15c1ae2d8a9923,Loa Janan,city,Broken clouds,Indonesia,Enjoy outdoor activities,green,53,-0.58295,117.09503,pm25,1008,East Kalimantan,31,Asia/Makassar,https://website-api.airvisual.com/v1/cities/5b7a94b66a15c1ae2d8a9923?units.temperature=celsius&units.distance=kilometer&AQI=US&language=id,21,10.1,"Open your windows to bring clean, fresh air indoors",green
21,5.1,5b7a94b66a15c1ae2d8a9916,Bima,city,Rain,Indonesia,Enjoy outdoor activities,green,66,-8.46006,118.72667,pm25,1008,West Nusa Tenggara,29,Asia/Makassar,https://website-api.airvisual.com/v1/cities/5b7a94b66a15c1ae2d8a9916?units.temperature=celsius&units.distance=kilometer&AQI=US&language=id,218,3.6,"Open your windows to bring clean, fresh air indoors",green
17,4.1,5b7a94b66a15c1ae2d8a9924,Bontang,city,Broken clouds,Indonesia,Enjoy outdoor activities,green,73,0.1324,117.4854,pm25,1008,East Kalimantan,28,Asia/Makassar,https://website-api.airvisual.com/v1/cities/5b7a94b66a15c1ae2d8a9924?units.temperature=celsius&units.distance=kilometer&AQI=US&language=id,32,18.6,"Open your windows to bring clean, fresh air indoors",green
17,4.1,5b7a94b76a15c1ae2d8a9936,Manismata,city,Broken clouds,Indonesia,Enjoy outdoor activities,green,59,-2.46667,111.03333,pm25,1008,West Kalimantan,32,Asia/Pontianak,https://website-api.airvisual.com/v1/cities/5b7a94b76a15c1ae2d8a9936?units.temperature=celsius&units.distance=kilometer&AQI=US&language=id,266,2.6,"Open your windows to bring clean, fresh air indoors",green
21,5.1,5b7a94b66a15c1ae2d8a9914,Lembar,city,Scattered clouds,Indonesia,Enjoy outdoor activities,green,62,-8.7264,116.0744,pm25,1009,West Nusa Tenggara,32,Asia/Makassar,https://website-api.airvisual.com/v1/cities/5b7a94b66a15c1ae2d8a9914?units.temperature=celsius&units.distance=kilometer&AQI=US&language=id,300,18.4,"Open your windows to bring clean, fresh air indoors",green
17,4.1,5b7a94b76a15c1ae2d8a9932,Sungai Raya,city,Rain,Indonesia,Enjoy outdoor activities,green,78,0.7,108.9,pm25,1009,West Kalimantan,29,Asia/Pontianak,https://website-api.airvisual.com/v1/cities/5b7a94b76a15c1ae2d8a9932?units.temperature=celsius&units.distance=kilometer&AQI=US&language=id,24,4.3,"Open your windows to bring clean, fresh air indoors",green
25,6.1,5b7a94b66a15c1ae2d8a9917,Senggigi,city,Scattered clouds,Indonesia,Enjoy outdoor activities,green,62,-8.4919,116.0424,pm25,1009,West Nusa Tenggara,32,Asia/Makassar,https://website-api.airvisual.com/v1/cities/5b7a94b66a15c1ae2d8a9917?units.temperature=celsius&units.distance=kilometer&AQI=US&language=id,300,18.4,"Open your windows to bring clean, fresh air indoors",green
17,4.1,5b7a94b76a15c1ae2d8a9935,Pemangkat,city,Rain,Indonesia,Enjoy outdoor activities,green,71,1.16667,108.96667,pm25,1009,West Kalimantan,29,Asia/Pontianak,https://website-api.airvisual.com/v1/cities/5b7a94b76a15c1ae2d8a9935?units.temperature=celsius&units.distance=kilometer&AQI=US&language=id,20,11.9,"Open your windows to bring clean, fresh air indoors",green
21,5.1,5b7a94b66a15c1ae2d8a9913,Labuan Lombok,city,Scattered clouds,Indonesia,Enjoy outdoor activities,green,62,-8.5,116.66667,pm25,1009,West Nusa Tenggara,32,Asia/Makassar,https://website-api.airvisual.com/v1/cities/5b7a94b66a15c1ae2d8a9913?units.temperature=celsius&units.distance=kilometer&AQI=US&language=id,300,18.4,"Open your windows to bring clean, fresh air indoors",green
17,4.1,5b7a94b66a15c1ae2d8a9925,Balikpapan,city,Few clouds,Indonesia,Enjoy outdoor activities,green,55,-1.26753,116.82887,pm25,1008,East Kalimantan,33,Asia/Makassar,https://website-api.airvisual.com/v1/cities/5b7a94b66a15c1ae2d8a9925?units.temperature=celsius&units.distance=kilometer&AQI=US&language=id,30,18.4,"Open your windows to bring clean, fresh air indoors",green
29,7.1,5b7a94b66a15c1ae2d8a9920,Kotabumi,city,Scattered clouds,Indonesia,Enjoy outdoor activities,green,70,-4.82505,104.8817,pm25,1009,Lampung,29,Asia/Jakarta,https://website-api.airvisual.com/v1/cities/5b7a94b66a15c1ae2d8a9920?units.temperature=celsius&units.distance=kilometer&AQI=US&language=id,327,24.7,"Open your windows to bring clean, fresh air indoors",green
21,5.1,5b7a94b66a15c1ae2d8a9915,Dompu,city,Rain,Indonesia,Enjoy outdoor activities,green,66,-8.5365,118.4634,pm25,1008,West Nusa Tenggara,29,Asia/Makassar,https://website-api.airvisual.com/v1/cities/5b7a94b66a15c1ae2d8a9915?units.temperature=celsius&units.distance=kilometer&AQI=US&language=id,218,3.6,"Open your windows to bring clean, fresh air indoors",green
29,7.1,5b7a94b66a15c1ae2d8a991f,Metro,city,Broken clouds,Indonesia,Enjoy outdoor activities,green,73,-5.11306,105.30667,pm25,1009,Lampung,29,Asia/Jakarta,https://website-api.airvisual.com/v1/cities/5b7a94b66a15c1ae2d8a991f?units.temperature=celsius&units.distance=kilometer&AQI=US&language=id,313,21.8,"Open your windows to bring clean, fresh air indoors",green
29,7.1,5b7a94b66a15c1ae2d8a991d,Terbanggi Besar,city,Scattered clouds,Indonesia,Enjoy outdoor activities,green,70,-4.87898,105.21818,pm25,1009,Lampung,29,Asia/Jakarta,https://website-api.airvisual.com/v1/cities/5b7a94b66a15c1ae2d8a991d?units.temperature=celsius&units.distance=kilometer&AQI=US&language=id,327,24.7,"Open your windows to bring clean, fresh air indoors",green
25,6,5b7a94b76a15c1ae2d8a992f,Banjarmasin,city,Rain,Indonesia,Enjoy outdoor activities,green,66,-3.31987,114.59075,pm25,1008,South Kalimantan,29,Asia/Makassar,https://website-api.airvisual.com/v1/cities/5b7a94b76a15c1ae2d8a992f?units.temperature=celsius&units.distance=kilometer&AQI=US&language=id,234,4.7,"Open your windows to bring clean, fresh air indoors",green
46,11.1,5b7a94b76a15c1ae2d8a992d,Martapura,city,Rain,Indonesia,Enjoy outdoor activities,green,74,-3.4109,114.8642,pm25,1008,South Kalimantan,29,Asia/Makassar,https://website-api.airvisual.com/v1/cities/5b7a94b76a15c1ae2d8a992d?units.temperature=celsius&units.distance=kilometer&AQI=US&language=id,325,2.1,"Open your windows to bring clean, fresh air indoors",green
17,4,5b7a94b66a15c1ae2d8a9912,Mataram,city,Scattered clouds,Indonesia,Enjoy outdoor activities,green,62,-8.58333,116.11667,pm25,1009,West Nusa Tenggara,32,Asia/Makassar,https://website-api.airvisual.com/v1/cities/5b7a94b66a15c1ae2d8a9912?units.temperature=celsius&units.distance=kilometer&AQI=US&language=id,300,18.4,"Open your windows to bring clean, fresh air indoors",green
29,7.1,5b7a94b76a15c1ae2d8a9930,Amuntai,city,Rain,Indonesia,Enjoy outdoor activities,green,80,-2.41773,115.24941,pm25,1008,South Kalimantan,28,Asia/Makassar,https://website-api.airvisual.com/v1/cities/5b7a94b76a15c1ae2d8a9930?units.temperature=celsius&units.distance=kilometer&AQI=US&language=id,329,2.8,"Open your windows to bring clean, fresh air indoors",green
25,6.1,5b7a94b76a15c1ae2d8a992b,Kualakapuas,city,Rain,Indonesia,Enjoy outdoor activities,green,71,-3.00913,114.38759,pm25,1008,Central Kalimantan,30,Asia/Pontianak,https://website-api.airvisual.com/v1/cities/5b7a94b76a15c1ae2d8a992b?units.temperature=celsius&units.distance=kilometer&AQI=US&language=id,229,2.8,"Open your windows to bring clean, fresh air indoors",green
13,3.1,5b7a94b66a15c1ae2d8a991a,Ambon,city,Scattered clouds,Indonesia,Enjoy outdoor activities,green,62,-3.69583,128.18333,pm25,1007,Maluku,32,Asia/Jayapura,https://website-api.airvisual.com/v1/cities/5b7a94b66a15c1ae2d8a991a?units.temperature=celsius&units.distance=kilometer&AQI=US&language=id,190,11.2,"Open your windows to bring clean, fresh air indoors",green
17,4.1,5b7a94b76a15c1ae2d8a9939,Tulungagung,city,Rain,Indonesia,Enjoy outdoor activities,green,70,-8.0657,111.9025,pm25,1009,East Java,29,Asia/Jakarta,https://website-api.airvisual.com/v1/cities/5b7a94b76a15c1ae2d8a9939?units.temperature=celsius&units.distance=kilometer&AQI=US&language=id,188,16.1,"Open your windows to bring clean, fresh air indoors",green
93,32.2,5b7a94b76a15c1ae2d8a9947,Sampang,city,Rain,Indonesia,Sensitive groups should reduce outdoor exercise,orange,68,-7.1872,113.2394,pm25,1009,East Java,30,Asia/Jakarta,https://website-api.airvisual.com/v1/cities/5b7a94b76a15c1ae2d8a9947?units.temperature=celsius&units.distance=kilometer&AQI=US&language=id,174,7.7,Close your windows to avoid dirty outdoor air,red
17,4.1,5b7a94b76a15c1ae2d8a9940,Sumberpucung,city,Rain,Indonesia,Enjoy outdoor activities,green,79,-8.15856,112.48292,pm25,1009,East Java,24,Asia/Jakarta,https://website-api.airvisual.com/v1/cities/5b7a94b76a15c1ae2d8a9940?units.temperature=celsius&units.distance=kilometer&AQI=US&language=id,188,6.9,"Open your windows to bring clean, fresh air indoors",green
17,4.1,5b7a94b66a15c1ae2d8a9926,City of Balikpapan,city,Few clouds,Indonesia,Enjoy outdoor activities,green,55,-1.24204,116.89419,pm25,1008,East Kalimantan,33,Asia/Makassar,https://website-api.airvisual.com/v1/cities/5b7a94b66a15c1ae2d8a9926?units.temperature=celsius&units.distance=kilometer&AQI=US&language=id,30,18.4,"Open your windows to bring clean, fresh air indoors",green
38,9.1,5b7a94b76a15c1ae2d8a994d,Panji,city,Broken clouds,Indonesia,Enjoy outdoor activities,green,68,-7.72528,114.09954,pm25,1008,East Java,28,Asia/Jakarta,https://website-api.airvisual.com/v1/cities/5b7a94b76a15c1ae2d8a994d?units.temperature=celsius&units.distance=kilometer&AQI=US&language=id,27,4.9,"Open your windows to bring clean, fresh air indoors",green
25,6.1,5b7a94b76a15c1ae2d8a992e,Barabai,city,Rain,Indonesia,Enjoy outdoor activities,green,80,-2.58333,115.38333,pm25,1008,South Kalimantan,28,Asia/Makassar,https://website-api.airvisual.com/v1/cities/5b7a94b76a15c1ae2d8a992e?units.temperature=celsius&units.distance=kilometer&AQI=US&language=id,329,2.8,"Open your windows to bring clean, fresh air indoors",green
21,5.1,5b7a94b86a15c1ae2d8a996c,Genteng,city,Rain,Indonesia,Enjoy outdoor activities,green,60,-8.36667,114.15,pm25,1009,East Java,30,Asia/Jakarta,https://website-api.airvisual.com/v1/cities/5b7a94b86a15c1ae2d8a996c?units.temperature=celsius&units.distance=kilometer&AQI=US&language=id,232,9.1,"Open your windows to bring clean, fresh air indoors",green
17,4.1,5b7a94b66a15c1ae2d8a9919,Tual,city,Rain,Indonesia,Enjoy outdoor activities,green,75,-5.62878,132.75229,pm25,1007,Maluku,28,Asia/Jayapura,https://website-api.airvisual.com/v1/cities/5b7a94b66a15c1ae2d8a9919?units.temperature=celsius&units.distance=kilometer&AQI=US&language=id,287,19.9,"Open your windows to bring clean, fresh air indoors",green
17,4.1,5b7a94b76a15c1ae2d8a9933,Singkawang,city,Rain,Indonesia,Enjoy outdoor activities,green,71,0.90925,108.98463,pm25,1009,West Kalimantan,29,Asia/Pontianak,https://website-api.airvisual.com/v1/cities/5b7a94b76a15c1ae2d8a9933?units.temperature=celsius&units.distance=kilometer&AQI=US&language=id,20,11.9,"Open your windows to bring clean, fresh air indoors",green
17,4.1,5b7a94b86a15c1ae2d8a996b,Gongdanglegi Kulon,city,Rain,Indonesia,Enjoy outdoor activities,green,79,-8.17529,112.63594,pm25,1009,East Java,24,Asia/Jakarta,https://website-api.airvisual.com/v1/cities/5b7a94b86a15c1ae2d8a996b?units.temperature=celsius&units.distance=kilometer&AQI=US&language=id,188,6.9,"Open your windows to bring clean, fresh air indoors",green
17,4.1,5b7a94b86a15c1ae2d8a9963,Kedungwaru,city,Rain,Indonesia,Enjoy outdoor activities,green,70,-8.06667,111.91667,pm25,1009,East Java,29,Asia/Jakarta,https://website-api.airvisual.com/v1/cities/5b7a94b86a15c1ae2d8a9963?units.temperature=celsius&units.distance=kilometer&AQI=US&language=id,188,16.1,"Open your windows to bring clean, fresh air indoors",green
76,24.1,5b7a94b76a15c1ae2d8a993f,Sumenep,city,Rain,Indonesia,Sensitive groups should reduce outdoor exercise,orange,70,-7.01667,113.86667,pm25,1008,East Java,28,Asia/Jakarta,https://website-api.airvisual.com/v1/cities/5b7a94b76a15c1ae2d8a993f?units.temperature=celsius&units.distance=kilometer&AQI=US&language=id,156,12.1,Close your windows to avoid dirty outdoor air,red
25,6.1,5b7a94b86a15c1ae2d8a9959,Malang,city,Rain,Indonesia,Enjoy outdoor activities,green,79,-7.9797,112.6304,pm25,1009,East Java,24,Asia/Jakarta,https://website-api.airvisual.com/v1/cities/5b7a94b86a15c1ae2d8a9959?units.temperature=celsius&units.distance=kilometer&AQI=US&language=id,188,6.9,"Open your windows to bring clean, fresh air indoors",green
46,11.1,5b7a94b76a15c1ae2d8a994b,Pasuruan,city,Broken clouds,Indonesia,Enjoy outdoor activities,green,72,-7.6453,112.9075,pm25,1009,East Java,28,Asia/Jakarta,https://website-api.airvisual.com/v1/cities/5b7a94b76a15c1ae2d8a994b?units.temperature=celsius&units.distance=kilometer&AQI=US&language=id,103,9.5,"Open your windows to bring clean, fresh air indoors",green
25,6.1,5b7a94b86a15c1ae2d8a995c,Lawang,city,Rain,Indonesia,Enjoy outdoor activities,green,79,-7.8353,112.6947,pm25,1009,East Java,24,Asia/Jakarta,https://website-api.airvisual.com/v1/cities/5b7a94b86a15c1ae2d8a995c?units.temperature=celsius&units.distance=kilometer&AQI=US&language=id,188,6.9,"Open your windows to bring clean, fresh air indoors",green
57,15.1,5b7a94b86a15c1ae2d8a9968,Jombang,city,Rain,Indonesia,Sensitive groups should reduce outdoor exercise,orange,71,-7.54595,112.23307,pm25,1009,East Java,29,Asia/Jakarta,https://website-api.airvisual.com/v1/cities/5b7a94b86a15c1ae2d8a9968?units.temperature=celsius&units.distance=kilometer&AQI=US&language=id,195,10.1,Close your windows to avoid dirty outdoor air,red
68,20.1,5b7a94b76a15c1ae2d8a993b,Tuban,city,Rain,Indonesia,Sensitive groups should reduce outdoor exercise,orange,71,-6.8976,112.0649,pm25,1009,East Java,29,Asia/Jakarta,https://website-api.airvisual.com/v1/cities/5b7a94b76a15c1ae2d8a993b?units.temperature=celsius&units.distance=kilometer&AQI=US&language=id,184,8.2,Close your windows to avoid dirty outdoor air,red
51,12.1,5b7a94b76a15c1ae2d8a994c,Pare,city,Rain,Indonesia,Sensitive groups should reduce outdoor exercise,orange,70,-7.7679,112.198,pm25,1009,East Java,29,Asia/Jakarta,https://website-api.airvisual.com/v1/cities/5b7a94b76a15c1ae2d8a994c?units.temperature=celsius&units.distance=kilometer&AQI=US&language=id,188,16.1,Close your windows to avoid dirty outdoor air,red
85,28.2,5b7a94b76a15c1ae2d8a9946,Sidoarjo,city,Broken clouds,Indonesia,Sensitive groups should reduce outdoor exercise,orange,66,-7.4478,112.7183,pm25,1009,East Java,29,Asia/Jakarta,https://website-api.airvisual.com/v1/cities/5b7a94b76a15c1ae2d8a9946?units.temperature=celsius&units.distance=kilometer&AQI=US&language=id,360,4.5,Close your windows to avoid dirty outdoor air,red
51,12.1,5b7a94b86a15c1ae2d8a9954,Ngoro,city,Broken clouds,Indonesia,Sensitive groups should reduce outdoor exercise,orange,66,-7.68386,112.25804,pm25,1009,East Java,29,Asia/Jakarta,https://website-api.airvisual.com/v1/cities/5b7a94b86a15c1ae2d8a9954?units.temperature=celsius&units.distance=kilometer&AQI=US&language=id,360,4.5,Close your windows to avoid dirty outdoor air,red
93,32.3,5b7a94b76a15c1ae2d8a993e,Surabaya,city,Broken clouds,Indonesia,Sensitive groups should reduce outdoor exercise,orange,72,-7.2800904,112.7946058,pm25,1009,East Java,28,Asia/Jakarta,https://website-api.airvisual.com/v1/cities/5b7a94b76a15c1ae2d8a993e?units.temperature=celsius&units.distance=kilometer&AQI=US&language=id,103,9.5,Close your windows to avoid dirty outdoor air,red
93,32.2,5b7a94b86a15c1ae2d8a9950,Pamekasan,city,Broken clouds,Indonesia,Sensitive groups should reduce outdoor exercise,orange,64,-7.1568,113.4746,pm25,1008,East Java,29,Asia/Jakarta,https://website-api.airvisual.com/v1/cities/5b7a94b86a15c1ae2d8a9950?units.temperature=celsius&units.distance=kilometer&AQI=US&language=id,190,3.5,Close your windows to avoid dirty outdoor air,red
70,21.1,5b7a94b86a15c1ae2d8a9952,Paciran,city,Broken clouds,Indonesia,Sensitive groups should reduce outdoor exercise,orange,64,-6.87666,112.37606,pm25,1009,East Java,31,Asia/Jakarta,https://website-api.airvisual.com/v1/cities/5b7a94b86a15c1ae2d8a9952?units.temperature=celsius&units.distance=kilometer&AQI=US&language=id,208,12.1,Close your windows to avoid dirty outdoor air,red
76,24.1,5b7a94b86a15c1ae2d8a9970,Driyorejo,city,Broken clouds,Indonesia,Sensitive groups should reduce outdoor exercise,orange,66,-7.3659,112.6219,pm25,1009,East Java,29,Asia/Jakarta,https://website-api.airvisual.com/v1/cities/5b7a94b86a15c1ae2d8a9970?units.temperature=celsius&units.distance=kilometer&AQI=US&language=id,360,4.5,Close your windows to avoid dirty outdoor air,red
17,4.1,5b7a94b86a15c1ae2d8a9961,Kepanjen,city,Rain,Indonesia,Enjoy outdoor activities,green,79,-8.1303,112.5727,pm25,1009,East Java,24,Asia/Jakarta,https://website-api.airvisual.com/v1/cities/5b7a94b86a15c1ae2d8a9961?units.temperature=celsius&units.distance=kilometer&AQI=US&language=id,188,6.9,"Open your windows to bring clean, fresh air indoors",green
59,16.1,5b7a94b86a15c1ae2d8a995a,Madiun,city,Rain,Indonesia,Sensitive groups should reduce outdoor exercise,orange,71,-7.6298,111.5239,pm25,1009,East Java,29,Asia/Jakarta,https://website-api.airvisual.com/v1/cities/5b7a94b86a15c1ae2d8a995a?units.temperature=celsius&units.distance=kilometer&AQI=US&language=id,174,8.6,Close your windows to avoid dirty outdoor air,red
29,7.1,5b7a94b76a15c1ae2d8a994a,Ponorogo,city,Rain,Indonesia,Enjoy outdoor activities,green,66,-7.8685,111.462,pm25,1009,East Java,28,Asia/Jakarta,https://website-api.airvisual.com/v1/cities/5b7a94b76a15c1ae2d8a994a?units.temperature=celsius&units.distance=kilometer&AQI=US&language=id,187,7.6,"Open your windows to bring clean, fresh air indoors",green
85,28.2,5b7a94b86a15c1ae2d8a9973,Buduran,city,Broken clouds,Indonesia,Sensitive groups should reduce outdoor exercise,orange,66,-7.4281,112.7234,pm25,1009,East Java,29,Asia/Jakarta,https://website-api.airvisual.com/v1/cities/5b7a94b86a15c1ae2d8a9973?units.temperature=celsius&units.distance=kilometer&AQI=US&language=id,360,4.5,Close your windows to avoid dirty outdoor air,red
78,25.2,5b7a94b86a15c1ae2d8a9965,Kebomas,city,Broken clouds,Indonesia,Sensitive groups should reduce outdoor exercise,orange,64,-7.16667,112.6333,pm25,1009,East Java,31,Asia/Jakarta,https://website-api.airvisual.com/v1/cities/5b7a94b86a15c1ae2d8a9965?units.temperature=celsius&units.distance=kilometer&AQI=US&language=id,208,12.1,Close your windows to avoid dirty outdoor air,red
57,15.1,5b7a94b86a15c1ae2d8a9955,Nganjuk,city,Rain,Indonesia,Sensitive groups should reduce outdoor exercise,orange,71,-7.6051,111.9035,pm25,1009,East Java,29,Asia/Jakarta,https://website-api.airvisual.com/v1/cities/5b7a94b86a15c1ae2d8a9955?units.temperature=celsius&units.distance=kilometer&AQI=US&language=id,195,10.1,Close your windows to avoid dirty outdoor air,red
83,27.2,5b7a94b86a15c1ae2d8a9967,Kalianget,city,Rain,Indonesia,Sensitive groups should reduce outdoor exercise,orange,70,-7.0537,113.94244,pm25,1008,East Java,28,Asia/Jakarta,https://website-api.airvisual.com/v1/cities/5b7a94b86a15c1ae2d8a9967?units.temperature=celsius&units.distance=kilometer&AQI=US&language=id,156,12.1,Close your windows to avoid dirty outdoor air,red
89,30.2,5b7a94b86a15c1ae2d8a9966,Kamal,city,Broken clouds,Indonesia,Sensitive groups should reduce outdoor exercise,orange,64,-7.16778,112.71917,pm25,1009,East Java,31,Asia/Jakarta,https://website-api.airvisual.com/v1/cities/5b7a94b86a15c1ae2d8a9966?units.temperature=celsius&units.distance=kilometer&AQI=US&language=id,208,12.1,Close your windows to avoid dirty outdoor air,red
29,7.1,5b7a94b76a15c1ae2d8a9938,Wongsorejo,city,Broken clouds,Indonesia,Enjoy outdoor activities,green,74,-7.9908,114.4009,pm25,1008,East Java,28,Asia/Jakarta,https://website-api.airvisual.com/v1/cities/5b7a94b76a15c1ae2d8a9938?units.temperature=celsius&units.distance=kilometer&AQI=US&language=id,186,15.4,"Open your windows to bring clean, fresh air indoors",green
57,15.1,5b7a94b86a15c1ae2d8a9960,Kertosono,city,Rain,Indonesia,Sensitive groups should reduce outdoor exercise,orange,71,-7.58333,112.1,pm25,1009,East Java,29,Asia/Jakarta,https://website-api.airvisual.com/v1/cities/5b7a94b86a15c1ae2d8a9960?units.temperature=celsius&units.distance=kilometer&AQI=US&language=id,195,10.1,Close your windows to avoid dirty outdoor air,red
21,5.1,5b7a94b86a15c1ae2d8a995b,Lumajang,city,Rain,Indonesia,Enjoy outdoor activities,green,72,-8.1335,113.2248,pm25,1009,East Java,23,Asia/Jakarta,https://website-api.airvisual.com/v1/cities/5b7a94b86a15c1ae2d8a995b?units.temperature=celsius&units.distance=kilometer&AQI=US&language=id,175,4,"Open your windows to bring clean, fresh air indoors",green
17,4.1,5b7a94b86a15c1ae2d8a9956,Muncar,city,Scattered clouds,Indonesia,Enjoy outdoor activities,green,72,-8.43333,114.33333,pm25,1009,East Java,28,Asia/Jakarta,https://website-api.airvisual.com/v1/cities/5b7a94b86a15c1ae2d8a9956?units.temperature=celsius&units.distance=kilometer&AQI=US&language=id,242,13.1,"Open your windows to bring clean, fresh air indoors",green
25,6.1,5b7a94b76a15c1ae2d8a9944,Singosari,city,Rain,Indonesia,Enjoy outdoor activities,green,79,-7.8924,112.6658,pm25,1009,East Java,24,Asia/Jakarta,https://website-api.airvisual.com/v1/cities/5b7a94b76a15c1ae2d8a9944?units.temperature=celsius&units.distance=kilometer&AQI=US&language=id,188,6.9,"Open your windows to bring clean, fresh air indoors",green
85,28.2,5b7a94b76a15c1ae2d8a993a,Tulangan Utara,city,Broken clouds,Indonesia,Sensitive groups should reduce outdoor exercise,orange,66,-7.4737,112.6505,pm25,1009,East Java,29,Asia/Jakarta,https://website-api.airvisual.com/v1/cities/5b7a94b76a15c1ae2d8a993a?units.temperature=celsius&units.distance=kilometer&AQI=US&language=id,360,4.5,Close your windows to avoid dirty outdoor air,red
53,13.1,5b7a94b86a15c1ae2d8a996e,Gampengrejo,city,Rain,Indonesia,Sensitive groups should reduce outdoor exercise,orange,70,-7.76667,112.01667,pm25,1009,East Java,29,Asia/Jakarta,https://website-api.airvisual.com/v1/cities/5b7a94b86a15c1ae2d8a996e?units.temperature=celsius&units.distance=kilometer&AQI=US&language=id,188,16.1,Close your windows to avoid dirty outdoor air,red
68,20.1,5b7a94b86a15c1ae2d8a995d,Lamongan,city,Broken clouds,Indonesia,Sensitive groups should reduce outdoor exercise,orange,64,-7.11667,112.41667,pm25,1009,East Java,31,Asia/Jakarta,https://website-api.airvisual.com/v1/cities/5b7a94b86a15c1ae2d8a995d?units.temperature=celsius&units.distance=kilometer&AQI=US&language=id,208,12.1,Close your windows to avoid dirty outdoor air,red
68,20.1,5b7a94b86a15c1ae2d8a9976,Bojonegoro,city,Rain,Indonesia,Sensitive groups should reduce outdoor exercise,orange,71,-7.1502,111.8817,pm25,1009,East Java,29,Asia/Jakarta,https://website-api.airvisual.com/v1/cities/5b7a94b86a15c1ae2d8a9976?units.temperature=celsius&units.distance=kilometer&AQI=US&language=id,184,8.2,Close your windows to avoid dirty outdoor air,red
21,5.1,5b7a94b86a15c1ae2d8a9969,Jember,city,Rain,Indonesia,Enjoy outdoor activities,green,74,-8.17211,113.69953,pm25,1009,East Java,25,Asia/Jakarta,https://website-api.airvisual.com/v1/cities/5b7a94b86a15c1ae2d8a9969?units.temperature=celsius&units.distance=kilometer&AQI=US&language=id,202,8.5,"Open your windows to bring clean, fresh air indoors",green
51,12.1,5b7a94b76a15c1ae2d8a9948,Probolinggo,city,Rain,Indonesia,Sensitive groups should reduce outdoor exercise,orange,72,-7.7543,113.2159,pm25,1009,East Java,23,Asia/Jakarta,https://website-api.airvisual.com/v1/cities/5b7a94b76a15c1ae2d8a9948?units.temperature=celsius&units.distance=kilometer&AQI=US&language=id,175,4,Close your windows to avoid dirty outdoor air,red
89,30.2,5b7a94b86a15c1ae2d8a996a,Gresik,city,Broken clouds,Indonesia,Sensitive groups should reduce outdoor exercise,orange,64,-7.15389,112.65611,pm25,1009,East Java,31,Asia/Jakarta,https://website-api.airvisual.com/v1/cities/5b7a94b86a15c1ae2d8a996a?units.temperature=celsius&units.distance=kilometer&AQI=US&language=id,208,12.1,Close your windows to avoid dirty outdoor air,red
17,4.1,5b7a94b86a15c1ae2d8a9974,Boyolangu,city,Rain,Indonesia,Enjoy outdoor activities,green,70,-8.1181,111.8935,pm25,1009,East Java,29,Asia/Jakarta,https://website-api.airvisual.com/v1/cities/5b7a94b86a15c1ae2d8a9974?units.temperature=celsius&units.distance=kilometer&AQI=US&language=id,188,16.1,"Open your windows to bring clean, fresh air indoors",green
17,4.1,5b7a94b86a15c1ae2d8a9977,Blitar,city,Rain,Indonesia,Enjoy outdoor activities,green,70,-8.0983,112.1681,pm25,1009,East Java,29,Asia/Jakarta,https://website-api.airvisual.com/v1/cities/5b7a94b86a15c1ae2d8a9977?units.temperature=celsius&units.distance=kilometer&AQI=US&language=id,188,16.1,"Open your windows to bring clean, fresh air indoors",green
57,15.1,5b7a94b86a15c1ae2d8a9958,Mojoagung,city,Broken clouds,Indonesia,Sensitive groups should reduce outdoor exercise,orange,66,-7.56667,112.35,pm25,1009,East Java,29,Asia/Jakarta,https://website-api.airvisual.com/v1/cities/5b7a94b86a15c1ae2d8a9958?units.temperature=celsius&units.distance=kilometer&AQI=US&language=id,360,4.5,Close your windows to avoid dirty outdoor air,red
17,4.1,5b7a94b76a15c1ae2d8a993c,Trenggalek,city,Rain,Indonesia,Enjoy outdoor activities,green,66,-8.0764,111.70641,pm25,1009,East Java,28,Asia/Jakarta,https://website-api.airvisual.com/v1/cities/5b7a94b76a15c1ae2d8a993c?units.temperature=celsius&units.distance=kilometer&AQI=US&language=id,187,7.6,"Open your windows to bring clean, fresh air indoors",green
38,9.1,5b7a94b86a15c1ae2d8a994f,Panarukan,city,Broken clouds,Indonesia,Enjoy outdoor activities,green,68,-7.70181,113.91844,pm25,1008,East Java,28,Asia/Jakarta,https://website-api.airvisual.com/v1/cities/5b7a94b86a15c1ae2d8a994f?units.temperature=celsius&units.distance=kilometer&AQI=US&language=id,27,4.9,"Open your windows to bring clean, fresh air indoors",green
76,24.1,5b7a94b86a15c1ae2d8a995e,Krian,city,Broken clouds,Indonesia,Sensitive groups should reduce outdoor exercise,orange,66,-7.4104,112.5792,pm25,1009,East Java,29,Asia/Jakarta,https://website-api.airvisual.com/v1/cities/5b7a94b86a15c1ae2d8a995e?units.temperature=celsius&units.distance=kilometer&AQI=US&language=id,360,4.5,Close your windows to avoid dirty outdoor air,red
17,4.1,5b7a94b86a15c1ae2d8a9951,Pakisaji,city,Rain,Indonesia,Enjoy outdoor activities,green,79,-8.0665,112.5981,pm25,1009,East Java,24,Asia/Jakarta,https://website-api.airvisual.com/v1/cities/5b7a94b86a15c1ae2d8a9951?units.temperature=celsius&units.distance=kilometer&AQI=US&language=id,188,6.9,"Open your windows to bring clean, fresh air indoors",green
25,6.1,5b7a94b86a15c1ae2d8a9975,Bondowoso,city,Rain,Indonesia,Enjoy outdoor activities,green,61,-7.91346,113.82145,pm25,1009,East Java,26,Asia/Jakarta,https://website-api.airvisual.com/v1/cities/5b7a94b86a15c1ae2d8a9975?units.temperature=celsius&units.distance=kilometer&AQI=US&language=id,230,10.8,"Open your windows to bring clean, fresh air indoors",green
46,11.1,5b7a94b86a15c1ae2d8a995f,Kraksaan,city,Rain,Indonesia,Enjoy outdoor activities,green,74,-7.75845,113.39624,pm25,1009,East Java,25,Asia/Jakarta,https://website-api.airvisual.com/v1/cities/5b7a94b86a15c1ae2d8a995f?units.temperature=celsius&units.distance=kilometer&AQI=US&language=id,202,8.5,"Open your windows to bring clean, fresh air indoors",green
17,4.1,5b7a94b76a15c1ae2d8a9941,Srono,city,Scattered clouds,Indonesia,Enjoy outdoor activities,green,72,-8.40003,114.26661,pm25,1009,East Java,28,Asia/Jakarta,https://website-api.airvisual.com/v1/cities/5b7a94b76a15c1ae2d8a9941?units.temperature=celsius&units.distance=kilometer&AQI=US&language=id,242,13.1,"Open your windows to bring clean, fresh air indoors",green
21,5.1,5b7a94b86a15c1ae2d8a9962,Kencong,city,Rain,Indonesia,Enjoy outdoor activities,green,78,-8.28333,113.36667,pm25,1009,East Java,27,Asia/Jakarta,https://website-api.airvisual.com/v1/cities/5b7a94b86a15c1ae2d8a9962?units.temperature=celsius&units.distance=kilometer&AQI=US&language=id,240,8.5,"Open your windows to bring clean, fresh air indoors",green
85,28.2,5b7a94b76a15c1ae2d8a993d,Tanggulangin,city,Broken clouds,Indonesia,Sensitive groups should reduce outdoor exercise,orange,66,-7.49958,112.69992,pm25,1009,East Java,29,Asia/Jakarta,https://website-api.airvisual.com/v1/cities/5b7a94b76a15c1ae2d8a993d?units.temperature=celsius&units.distance=kilometer&AQI=US&language=id,360,4.5,Close your windows to avoid dirty outdoor air,red
42,10.1,5b7a94b76a15c1ae2d8a994e,Pandaan,city,Broken clouds,Indonesia,Enjoy outdoor activities,green,66,-7.65268,112.6875,pm25,1009,East Java,29,Asia/Jakarta,https://website-api.airvisual.com/v1/cities/5b7a94b76a15c1ae2d8a994e?units.temperature=celsius&units.distance=kilometer&AQI=US&language=id,360,4.5,"Open your windows to bring clean, fresh air indoors",green
72,22.1,5b7a94b86a15c1ae2d8a9957,Mojokerto,city,Broken clouds,Indonesia,Sensitive groups should reduce outdoor exercise,orange,66,-7.4664,112.4338,pm25,1009,East Java,29,Asia/Jakarta,https://website-api.airvisual.com/v1/cities/5b7a94b86a15c1ae2d8a9957?units.temperature=celsius&units.distance=kilometer&AQI=US&language=id,360,4.5,Close your windows to avoid dirty outdoor air,red
91,31.2,5b7a94b86a15c1ae2d8a996d,Gedangan,city,Broken clouds,Indonesia,Sensitive groups should reduce outdoor exercise,orange,66,-7.39083,112.72667,pm25,1009,East Java,29,Asia/Jakarta,https://website-api.airvisual.com/v1/cities/5b7a94b86a15c1ae2d8a996d?units.temperature=celsius&units.distance=kilometer&AQI=US&language=id,360,4.5,Close your windows to avoid dirty outdoor air,red
21,5.1,5b7a94b76a15c1ae2d8a9945,Singojuruh,city,Rain,Indonesia,Enjoy outdoor activities,green,60,-8.31667,114.23333,pm25,1009,East Java,30,Asia/Jakarta,https://website-api.airvisual.com/v1/cities/5b7a94b76a15c1ae2d8a9945?units.temperature=celsius&units.distance=kilometer&AQI=US&language=id,232,9.1,"Open your windows to bring clean, fresh air indoors",green
72,22.1,5b7a94b76a15c1ae2d8a9942,Soko,city,Broken clouds,Indonesia,Sensitive groups should reduce outdoor exercise,orange,66,-7.48315,112.42704,pm25,1009,East Java,29,Asia/Jakarta,https://website-api.airvisual.com/v1/cities/5b7a94b76a15c1ae2d8a9942?units.temperature=celsius&units.distance=kilometer&AQI=US&language=id,360,4.5,Close your windows to avoid dirty outdoor air,red
38,9.1,5b7a94b76a15c1ae2d8a9943,Situbondo,city,Broken clouds,Indonesia,Enjoy outdoor activities,green,68,-7.70623,114.00976,pm25,1008,East Java,28,Asia/Jakarta,https://website-api.airvisual.com/v1/cities/5b7a94b76a15c1ae2d8a9943?units.temperature=celsius&units.distance=kilometer&AQI=US&language=id,27,4.9,"Open your windows to bring clean, fresh air indoors",green
29,7.1,5b7a94b86a15c1ae2d8a9964,Kediri,city,Rain,Indonesia,Enjoy outdoor activities,green,70,-7.81667,112.01667,pm25,1009,East Java,29,Asia/Jakarta,https://website-api.airvisual.com/v1/cities/5b7a94b86a15c1ae2d8a9964?units.temperature=celsius&units.distance=kilometer&AQI=US&language=id,188,16.1,"Open your windows to bring clean, fresh air indoors",green
17,4.1,5b7a94b86a15c1ae2d8a996f,Gambiran Satu,city,Rain,Indonesia,Enjoy outdoor activities,green,60,-8.3939,114.1464,pm25,1009,East Java,30,Asia/Jakarta,https://website-api.airvisual.com/v1/cities/5b7a94b86a15c1ae2d8a996f?units.temperature=celsius&units.distance=kilometer&AQI=US&language=id,232,9.1,"Open your windows to bring clean, fresh air indoors",green
46,11.1,5b7a94b76a15c1ae2d8a9949,Prigen,city,Broken clouds,Indonesia,Enjoy outdoor activities,green,66,-7.68333,112.61667,pm25,1009,East Java,29,Asia/Jakarta,https://website-api.airvisual.com/v1/cities/5b7a94b76a15c1ae2d8a9949?units.temperature=celsius&units.distance=kilometer&AQI=US&language=id,360,4.5,"Open your windows to bring clean, fresh air indoors",green
17,4.1,5b7a94b86a15c1ae2d8a9972,Dampit,city,Rain,Indonesia,Enjoy outdoor activities,green,72,-8.21162,112.74934,pm25,1009,East Java,23,Asia/Jakarta,https://website-api.airvisual.com/v1/cities/5b7a94b86a15c1ae2d8a9972?units.temperature=celsius&units.distance=kilometer&AQI=US&language=id,175,4,"Open your windows to bring clean, fresh air indoors",green
57,15.1,5b7a94b86a15c1ae2d8a9971,Diwek,city,Rain,Indonesia,Sensitive groups should reduce outdoor exercise,orange,71,-7.57897,112.23109,pm25,1009,East Java,29,Asia/Jakarta,https://website-api.airvisual.com/v1/cities/5b7a94b86a15c1ae2d8a9971?units.temperature=celsius&units.distance=kilometer&AQI=US&language=id,195,10.1,Close your windows to avoid dirty outdoor air,red
46,11.1,5b7a94b86a15c1ae2d8a99a3,Majenang,city,Rain,Indonesia,Enjoy outdoor activities,green,79,-7.2975,108.7642,pm25,1009,Central Java,28,Asia/Jakarta,https://website-api.airvisual.com/v1/cities/5b7a94b86a15c1ae2d8a99a3?units.temperature=celsius&units.distance=kilometer&AQI=US&language=id,170,7.5,"Open your windows to bring clean, fresh air indoors",green
17,4.1,5b7a94b86a15c1ae2d8a9953,Ngunut,city,Rain,Indonesia,Enjoy outdoor activities,green,70,-8.1058,112.01591,pm25,1009,East Java,29,Asia/Jakarta,https://website-api.airvisual.com/v1/cities/5b7a94b86a15c1ae2d8a9953?units.temperature=celsius&units.distance=kilometer&AQI=US&language=id,188,16.1,"Open your windows to bring clean, fresh air indoors",green
57,15.1,5b7a94b86a15c1ae2d8a9980,Wonosobo,city,Broken clouds,Indonesia,Sensitive groups should reduce outdoor exercise,orange,66,-7.35889,109.90306,pm25,1009,Central Java,29,Asia/Jakarta,https://website-api.airvisual.com/v1/cities/5b7a94b86a15c1ae2d8a9980?units.temperature=celsius&units.distance=kilometer&AQI=US&language=id,320,11.2,Close your windows to avoid dirty outdoor air,red
76,24.1,5b7a94b86a15c1ae2d8a9982,Wiradesa,city,Rain,Indonesia,Sensitive groups should reduce outdoor exercise,orange,75,-6.8922,109.619,pm25,1009,Central Java,29,Asia/Jakarta,https://website-api.airvisual.com/v1/cities/5b7a94b86a15c1ae2d8a9982?units.temperature=celsius&units.distance=kilometer&AQI=US&language=id,4,4.9,Close your windows to avoid dirty outdoor air,red
57,15.1,5b7a94b86a15c1ae2d8a99a4,Magelang,city,Broken clouds,Indonesia,Sensitive groups should reduce outdoor exercise,orange,66,-7.47056,110.21778,pm25,1009,Central Java,29,Asia/Jakarta,https://website-api.airvisual.com/v1/cities/5b7a94b86a15c1ae2d8a99a4?units.temperature=celsius&units.distance=kilometer&AQI=US&language=id,320,11.2,Close your windows to avoid dirty outdoor air,red
68,20.1,5b7a94b86a15c1ae2d8a99c0,Boyolali,city,Rain,Indonesia,Sensitive groups should reduce outdoor exercise,orange,79,-7.53306,110.59583,pm25,1009,Central Java,29,Asia/Jakarta,https://website-api.airvisual.com/v1/cities/5b7a94b86a15c1ae2d8a99c0?units.temperature=celsius&units.distance=kilometer&AQI=US&language=id,210,11.2,Close your windows to avoid dirty outdoor air,red
68,20.1,5b7a94b86a15c1ae2d8a99c8,Ambarawa,city,Broken clouds,Indonesia,Sensitive groups should reduce outdoor exercise,orange,66,-7.26333,110.3975,pm25,1009,Central Java,29,Asia/Jakarta,https://website-api.airvisual.com/v1/cities/5b7a94b86a15c1ae2d8a99c8?units.temperature=celsius&units.distance=kilometer&AQI=US&language=id,320,11.2,Close your windows to avoid dirty outdoor air,red
80,26.2,5b7a94b86a15c1ae2d8a998b,Tarub,city,Rain,Indonesia,Sensitive groups should reduce outdoor exercise,orange,69,-6.93333,109.16667,pm25,1009,Central Java,30,Asia/Jakarta,https://website-api.airvisual.com/v1/cities/5b7a94b86a15c1ae2d8a998b?units.temperature=celsius&units.distance=kilometer&AQI=US&language=id,247,4,Close your windows to avoid dirty outdoor air,red
46,11.1,5b7a94b86a15c1ae2d8a9996,Purwokerto,city,Rain,Indonesia,Enjoy outdoor activities,green,79,-7.42139,109.23444,pm25,1009,Central Java,28,Asia/Jakarta,https://website-api.airvisual.com/v1/cities/5b7a94b86a15c1ae2d8a9996?units.temperature=celsius&units.distance=kilometer&AQI=US&language=id,170,7.5,"Open your windows to bring clean, fresh air indoors",green
78,25.2,5b7a94b86a15c1ae2d8a999a,Pemalang,city,Rain,Indonesia,Sensitive groups should reduce outdoor exercise,orange,75,-6.89193,109.38263,pm25,1009,Central Java,29,Asia/Jakarta,https://website-api.airvisual.com/v1/cities/5b7a94b86a15c1ae2d8a999a?units.temperature=celsius&units.distance=kilometer&AQI=US&language=id,4,4.9,Close your windows to avoid dirty outdoor air,red
99,35.2,5b7a94b86a15c1ae2d8a99cf,Wanaraja,city,Rain,Indonesia,Sensitive groups should reduce outdoor exercise,orange,75,-7.1749,107.9808,pm25,1009,West Java,26,Asia/Jakarta,https://website-api.airvisual.com/v1/cities/5b7a94b86a15c1ae2d8a99cf?units.temperature=celsius&units.distance=kilometer&AQI=US&language=id,316,2.8,Close your windows to avoid dirty outdoor air,red
85,28.2,5b7a94b86a15c1ae2d8a99dc,Purwakarta,city,Rain,Indonesia,Sensitive groups should reduce outdoor exercise,orange,94,-6.55694,107.44333,pm25,1009,West Java,27,Asia/Jakarta,https://website-api.airvisual.com/v1/cities/5b7a94b86a15c1ae2d8a99dc?units.temperature=celsius&units.distance=kilometer&AQI=US&language=id,290,5.4,Close your windows to avoid dirty outdoor air,red
95,33.2,5b7a94b86a15c1ae2d8a99e5,Palimanan,city,Rain,Indonesia,Sensitive groups should reduce outdoor exercise,orange,73,-6.70694,108.42417,pm25,1009,West Java,29,Asia/Jakarta,https://website-api.airvisual.com/v1/cities/5b7a94b86a15c1ae2d8a99e5?units.temperature=celsius&units.distance=kilometer&AQI=US&language=id,289,5.3,Close your windows to avoid dirty outdoor air,red
95,33.2,5b7a94b86a15c1ae2d8a99e8,Majalengka,city,Rain,Indonesia,Sensitive groups should reduce outdoor exercise,orange,75,-6.83611,108.22778,pm25,1009,West Java,26,Asia/Jakarta,https://website-api.airvisual.com/v1/cities/5b7a94b86a15c1ae2d8a99e8?units.temperature=celsius&units.distance=kilometer&AQI=US&language=id,316,2.8,Close your windows to avoid dirty outdoor air,red
68,20.1,5b7a94b86a15c1ae2d8a99b4,Grogol,city,Rain,Indonesia,Sensitive groups should reduce outdoor exercise,orange,79,-7.60111,110.81861,pm25,1009,Central Java,29,Asia/Jakarta,https://website-api.airvisual.com/v1/cities/5b7a94b86a15c1ae2d8a99b4?units.temperature=celsius&units.distance=kilometer&AQI=US&language=id,210,11.2,Close your windows to avoid dirty outdoor air,red
57,15.1,5b7a94b86a15c1ae2d8a99a1,Mertoyudan,city,Rain,Indonesia,Sensitive groups should reduce outdoor exercise,orange,79,-7.52,110.22639,pm25,1009,Central Java,29,Asia/Jakarta,https://website-api.airvisual.com/v1/cities/5b7a94b86a15c1ae2d8a99a1?units.temperature=celsius&units.distance=kilometer&AQI=US&language=id,210,11.2,Close your windows to avoid dirty outdoor air,red
13,3.1,5b7a94b96a15c1ae2d8a9a17,Jayapura,city,Scattered clouds,Indonesia,Enjoy outdoor activities,green,74,-2.53371,140.71813,pm25,1006,Papua,27,Asia/Jayapura,https://website-api.airvisual.com/v1/cities/5b7a94b96a15c1ae2d8a9a17?units.temperature=celsius&units.distance=kilometer&AQI=US&language=id,342,10.8,"Open your windows to bring clean, fresh air indoors",green
91,31.2,5b7a94b86a15c1ae2d8a99f4,Citeureup,city,Broken clouds,Indonesia,Sensitive groups should reduce outdoor exercise,orange,78,-6.48556,106.88194,pm25,1009,West Java,28,Asia/Jakarta,https://website-api.airvisual.com/v1/cities/5b7a94b86a15c1ae2d8a99f4?units.temperature=celsius&units.distance=kilometer&AQI=US&language=id,330,20.5,Close your windows to avoid dirty outdoor air,red
99,35.2,5b7a94b86a15c1ae2d8a99f9,Cileungsir,city,Broken clouds,Indonesia,Sensitive groups should reduce outdoor exercise,orange,78,-6.39472,106.95917,pm25,1009,West Java,28,Asia/Jakarta,https://website-api.airvisual.com/v1/cities/5b7a94b86a15c1ae2d8a99f9?units.temperature=celsius&units.distance=kilometer&AQI=US&language=id,330,20.5,Close your windows to avoid dirty outdoor air,red
57,15.1,5b7a94b86a15c1ae2d8a9985,Wedi,city,Rain,Indonesia,Sensitive groups should reduce outdoor exercise,orange,79,-7.74306,110.57944,pm25,1009,Central Java,29,Asia/Jakarta,https://website-api.airvisual.com/v1/cities/5b7a94b86a15c1ae2d8a9985?units.temperature=celsius&units.distance=kilometer&AQI=US&language=id,210,11.2,Close your windows to avoid dirty outdoor air,red
80,26.2,5b7a94b86a15c1ae2d8a99d8,Sepatan,city,Broken clouds,Indonesia,Sensitive groups should reduce outdoor exercise,orange,78,-6.11889,106.575,pm25,1009,West Java,28,Asia/Jakarta,https://website-api.airvisual.com/v1/cities/5b7a94b86a15c1ae2d8a99d8?units.temperature=celsius&units.distance=kilometer&AQI=US&language=id,330,20.5,Close your windows to avoid dirty outdoor air,red
70,21.1,5b7a94b86a15c1ae2d8a99b6,Gebog,city,Broken clouds,Indonesia,Sensitive groups should reduce outdoor exercise,orange,66,-6.735,110.8444,pm25,1009,Central Java,29,Asia/Jakarta,https://website-api.airvisual.com/v1/cities/5b7a94b86a15c1ae2d8a99b6?units.temperature=celsius&units.distance=kilometer&AQI=US&language=id,320,11.2,Close your windows to avoid dirty outdoor air,red
68,20.1,5b7a94b86a15c1ae2d8a999d,Pati,city,Few clouds,Indonesia,Sensitive groups should reduce outdoor exercise,orange,70,-6.7559,111.038,pm25,1009,Central Java,29,Asia/Jakarta,https://website-api.airvisual.com/v1/cities/5b7a94b86a15c1ae2d8a999d?units.temperature=celsius&units.distance=kilometer&AQI=US&language=id,170,8.4,Close your windows to avoid dirty outdoor air,red
31,7.4,5b7a94b86a15c1ae2d8a9a05,Bandung,city,Rain,Indonesia,Enjoy outdoor activities,green,74,-6.92222,107.60694,pm25,1009,West Java,23,Asia/Jakarta,https://website-api.airvisual.com/v1/cities/5b7a94b86a15c1ae2d8a9a05?units.temperature=celsius&units.distance=kilometer&AQI=US&language=id,287,6,"Open your windows to bring clean, fresh air indoors",green
34,8.1,5b7a94b86a15c1ae2d8a99a9,Kroya,city,Rain,Indonesia,Enjoy outdoor activities,green,78,-7.63306,109.24611,pm25,1009,Central Java,28,Asia/Jakarta,https://website-api.airvisual.com/v1/cities/5b7a94b86a15c1ae2d8a99a9?units.temperature=celsius&units.distance=kilometer&AQI=US&language=id,185,5.8,"Open your windows to bring clean, fresh air indoors",green
38,9.1,5b7a94b86a15c1ae2d8a997d,Balung,city,Broken clouds,Indonesia,Enjoy outdoor activities,green,68,-7.73333,113.91667,pm25,1008,East Java,28,Asia/Jakarta,https://website-api.airvisual.com/v1/cities/5b7a94b86a15c1ae2d8a997d?units.temperature=celsius&units.distance=kilometer&AQI=US&language=id,27,4.9,"Open your windows to bring clean, fresh air indoors",green
99,35.2,5b7a94b86a15c1ae2d8a9a00,Ciampea,city,Broken clouds,Indonesia,Sensitive groups should reduce outdoor exercise,orange,78,-6.55472,106.70083,pm25,1009,West Java,28,Asia/Jakarta,https://website-api.airvisual.com/v1/cities/5b7a94b86a15c1ae2d8a9a00?units.temperature=celsius&units.distance=kilometer&AQI=US&language=id,330,20.5,Close your windows to avoid dirty outdoor air,red
29,7.1,5b7a94b86a15c1ae2d8a9990,Sidareja,city,Rain,Indonesia,Enjoy outdoor activities,green,79,-7.4846,108.7923,pm25,1009,Central Java,28,Asia/Jakarta,https://website-api.airvisual.com/v1/cities/5b7a94b86a15c1ae2d8a9990?units.temperature=celsius&units.distance=kilometer&AQI=US&language=id,170,7.5,"Open your windows to bring clean, fresh air indoors",green
91,31.2,5b7a94b86a15c1ae2d8a99da,Rengasdengklok,city,Rain,Indonesia,Sensitive groups should reduce outdoor exercise,orange,94,-6.15917,107.29806,pm25,1009,West Java,28,Asia/Jakarta,https://website-api.airvisual.com/v1/cities/5b7a94b86a15c1ae2d8a99da?units.temperature=celsius&units.distance=kilometer&AQI=US&language=id,290,5.4,Close your windows to avoid dirty outdoor air,red
51,12.1,5b7a94b86a15c1ae2d8a99d6,Singaparna,city,Rain,Indonesia,Sensitive groups should reduce outdoor exercise,orange,86,-7.3515,108.111,pm25,1009,West Java,24,Asia/Jakarta,https://website-api.airvisual.com/v1/cities/5b7a94b86a15c1ae2d8a99d6?units.temperature=celsius&units.distance=kilometer&AQI=US&language=id,189,7.5,Close your windows to avoid dirty outdoor air,red
91,31.2,5b7a94b86a15c1ae2d8a9a06,Astanajapura,city,Rain,Indonesia,Sensitive groups should reduce outdoor exercise,orange,72,-6.8017,108.6311,pm25,1009,West Java,28,Asia/Jakarta,https://website-api.airvisual.com/v1/cities/5b7a94b86a15c1ae2d8a9a06?units.temperature=celsius&units.distance=kilometer&AQI=US&language=id,137,3.1,Close your windows to avoid dirty outdoor air,red
70,21.1,5b7a94b86a15c1ae2d8a99c7,Baekrajan,city,Broken clouds,Indonesia,Sensitive groups should reduce outdoor exercise,orange,66,-6.7674,110.8541,pm25,1009,Central Java,29,Asia/Jakarta,https://website-api.airvisual.com/v1/cities/5b7a94b86a15c1ae2d8a99c7?units.temperature=celsius&units.distance=kilometer&AQI=US&language=id,320,11.2,Close your windows to avoid dirty outdoor air,red
53,13.1,5b7a94b86a15c1ae2d8a99eb,Kresek,city,Broken clouds,Indonesia,Sensitive groups should reduce outdoor exercise,orange,78,-6.13139,106.37972,pm25,1009,West Java,28,Asia/Jakarta,https://website-api.airvisual.com/v1/cities/5b7a94b86a15c1ae2d8a99eb?units.temperature=celsius&units.distance=kilometer&AQI=US&language=id,330,20.5,Close your windows to avoid dirty outdoor air,red
91,31.2,5b7a94b86a15c1ae2d8a99f5,Cirebon,city,Rain,Indonesia,Sensitive groups should reduce outdoor exercise,orange,73,-6.7063,108.557,pm25,1009,West Java,29,Asia/Jakarta,https://website-api.airvisual.com/v1/cities/5b7a94b86a15c1ae2d8a99f5?units.temperature=celsius&units.distance=kilometer&AQI=US&language=id,289,5.3,Close your windows to avoid dirty outdoor air,red
99,35.2,5b7a94b86a15c1ae2d8a9a03,Banjaran,city,Rain,Indonesia,Sensitive groups should reduce outdoor exercise,orange,74,-7.04528,107.58778,pm25,1009,West Java,23,Asia/Jakarta,https://website-api.airvisual.com/v1/cities/5b7a94b86a15c1ae2d8a9a03?units.temperature=celsius&units.distance=kilometer&AQI=US&language=id,287,6,Close your windows to avoid dirty outdoor air,red
99,35.2,5b7a94b86a15c1ae2d8a99d1,Sumedang Utara,city,Rain,Indonesia,Sensitive groups should reduce outdoor exercise,orange,75,-6.85,107.91667,pm25,1009,West Java,26,Asia/Jakarta,https://website-api.airvisual.com/v1/cities/5b7a94b86a15c1ae2d8a99d1?units.temperature=celsius&units.distance=kilometer&AQI=US&language=id,316,2.8,Close your windows to avoid dirty outdoor air,red
57,15.1,5b7a94b86a15c1ae2d8a99aa,Klaten,city,Rain,Indonesia,Sensitive groups should reduce outdoor exercise,orange,79,-7.70583,110.60639,pm25,1009,Central Java,29,Asia/Jakarta,https://website-api.airvisual.com/v1/cities/5b7a94b86a15c1ae2d8a99aa?units.temperature=celsius&units.distance=kilometer&AQI=US&language=id,210,11.2,Close your windows to avoid dirty outdoor air,red
80,26.2,5b7a94b86a15c1ae2d8a998f,Slawi,city,Rain,Indonesia,Sensitive groups should reduce outdoor exercise,orange,69,-6.9816,109.1407,pm25,1009,Central Java,30,Asia/Jakarta,https://website-api.airvisual.com/v1/cities/5b7a94b86a15c1ae2d8a998f?units.temperature=celsius&units.distance=kilometer&AQI=US&language=id,247,4,Close your windows to avoid dirty outdoor air,red
99,35.2,5b7a94b86a15c1ae2d8a99db,Rajapolah,city,Rain,Indonesia,Sensitive groups should reduce outdoor exercise,orange,75,-7.221,108.1896,pm25,1009,West Java,26,Asia/Jakarta,https://website-api.airvisual.com/v1/cities/5b7a94b86a15c1ae2d8a99db?units.temperature=celsius&units.distance=kilometer&AQI=US&language=id,316,2.8,Close your windows to avoid dirty outdoor air,red
57,15.1,5b7a94b86a15c1ae2d8a99b0,Jogonalan,city,Rain,Indonesia,Sensitive groups should reduce outdoor exercise,orange,79,-7.70361,110.53611,pm25,1009,Central Java,29,Asia/Jakarta,https://website-api.airvisual.com/v1/cities/5b7a94b86a15c1ae2d8a99b0?units.temperature=celsius&units.distance=kilometer&AQI=US&language=id,210,11.2,Close your windows to avoid dirty outdoor air,red
97,34.2,5b7a94b86a15c1ae2d8a99e7,Margahayukencana,city,Rain,Indonesia,Sensitive groups should reduce outdoor exercise,orange,74,-6.97083,107.5675,pm25,1009,West Java,23,Asia/Jakarta,https://website-api.airvisual.com/v1/cities/5b7a94b86a15c1ae2d8a99e7?units.temperature=celsius&units.distance=kilometer&AQI=US&language=id,287,6,Close your windows to avoid dirty outdoor air,red
83,27.2,5b7a94b86a15c1ae2d8a9997,Purwodadi,city,Rain,Indonesia,Sensitive groups should reduce outdoor exercise,orange,79,-7.0868,110.9158,pm25,1009,Central Java,29,Asia/Jakarta,https://website-api.airvisual.com/v1/cities/5b7a94b86a15c1ae2d8a9997?units.temperature=celsius&units.distance=kilometer&AQI=US&language=id,210,11.2,Close your windows to avoid dirty outdoor air,red
13,3.1,5b7a94b96a15c1ae2d8a9a18,Abepura,city,Scattered clouds,Indonesia,Enjoy outdoor activities,green,74,-2.5964,140.6324,pm25,1006,Papua,27,Asia/Jayapura,https://website-api.airvisual.com/v1/cities/5b7a94b96a15c1ae2d8a9a18?units.temperature=celsius&units.distance=kilometer&AQI=US&language=id,342,10.8,"Open your windows to bring clean, fresh air indoors",green
25,6.1,5bac8b8924b967f0b53083a0,Baku,city,Broken clouds,Azerbaijan,Enjoy outdoor activities,green,87,40.37767,49.89201,pm25,1016,Baki,8,Asia/Baku,https://website-api.airvisual.com/v1/cities/5bac8b8924b967f0b53083a0?units.temperature=celsius&units.distance=kilometer&AQI=US&language=id,340,18.4,"Open your windows to bring clean, fresh air indoors",green
68,20.1,5b7a94b86a15c1ae2d8a99ca,Ngemplak,city,Rain,Indonesia,Sensitive groups should reduce outdoor exercise,orange,79,-7.54972,110.71639,pm25,1009,Central Java,29,Asia/Jakarta,https://website-api.airvisual.com/v1/cities/5b7a94b86a15c1ae2d8a99ca?units.temperature=celsius&units.distance=kilometer&AQI=US&language=id,210,11.2,Close your windows to avoid dirty outdoor air,red
55,14.1,5b7a94b86a15c1ae2d8a99c2,Baturaden,city,Rain,Indonesia,Sensitive groups should reduce outdoor exercise,orange,79,-7.3,109.21667,pm25,1009,Central Java,28,Asia/Jakarta,https://website-api.airvisual.com/v1/cities/5b7a94b86a15c1ae2d8a99c2?units.temperature=celsius&units.distance=kilometer&AQI=US&language=id,170,7.5,Close your windows to avoid dirty outdoor air,red
97,34.2,5b7a94b86a15c1ae2d8a99f6,Ciputat,city,Broken clouds,Indonesia,Sensitive groups should reduce outdoor exercise,orange,78,-6.2375,106.69556,pm25,1009,West Java,28,Asia/Jakarta,https://website-api.airvisual.com/v1/cities/5b7a94b86a15c1ae2d8a99f6?units.temperature=celsius&units.distance=kilometer&AQI=US&language=id,330,20.5,Close your windows to avoid dirty outdoor air,red
68,20.1,5b7a94b86a15c1ae2d8a99cb,Kartasura,city,Rain,Indonesia,Sensitive groups should reduce outdoor exercise,orange,79,-7.55194,110.73778,pm25,1009,Central Java,29,Asia/Jakarta,https://website-api.airvisual.com/v1/cities/5b7a94b86a15c1ae2d8a99cb?units.temperature=celsius&units.distance=kilometer&AQI=US&language=id,210,11.2,Close your windows to avoid dirty outdoor air,red
91,31.2,5b7a94b86a15c1ae2d8a99dd,Plumbon,city,Rain,Indonesia,Sensitive groups should reduce outdoor exercise,orange,73,-6.705,108.47278,pm25,1009,West Java,29,Asia/Jakarta,https://website-api.airvisual.com/v1/cities/5b7a94b86a15c1ae2d8a99dd?units.temperature=celsius&units.distance=kilometer&AQI=US&language=id,289,5.3,Close your windows to avoid dirty outdoor air,red
57,15.1,5b7a94b86a15c1ae2d8a9998,Purbalingga,city,Rain,Indonesia,Sensitive groups should reduce outdoor exercise,orange,78,-7.38806,109.36389,pm25,1009,Central Java,28,Asia/Jakarta,https://website-api.airvisual.com/v1/cities/5b7a94b86a15c1ae2d8a9998?units.temperature=celsius&units.distance=kilometer&AQI=US&language=id,185,5.8,Close your windows to avoid dirty outdoor air,red
80,26.2,5b7a94b86a15c1ae2d8a99e0,Pasarkemis,city,Broken clouds,Indonesia,Sensitive groups should reduce outdoor exercise,orange,78,-6.17028,106.53028,pm25,1009,West Java,28,Asia/Jakarta,https://website-api.airvisual.com/v1/cities/5b7a94b86a15c1ae2d8a99e0?units.temperature=celsius&units.distance=kilometer&AQI=US&language=id,330,20.5,Close your windows to avoid dirty outdoor air,red
93,32.2,5b7a94b86a15c1ae2d8a99d5,Soreang,city,Rain,Indonesia,Sensitive groups should reduce outdoor exercise,orange,74,-7.03306,107.51833,pm25,1009,West Java,23,Asia/Jakarta,https://website-api.airvisual.com/v1/cities/5b7a94b86a15c1ae2d8a99d5?units.temperature=celsius&units.distance=kilometer&AQI=US&language=id,287,6,Close your windows to avoid dirty outdoor air,red
85,28.2,5b7a94b86a15c1ae2d8a997c,Bangil,city,Broken clouds,Indonesia,Sensitive groups should reduce outdoor exercise,orange,72,-7.59939,112.8186,pm25,1009,East Java,28,Asia/Jakarta,https://website-api.airvisual.com/v1/cities/5b7a94b86a15c1ae2d8a997c?units.temperature=celsius&units.distance=kilometer&AQI=US&language=id,103,9.5,Close your windows to avoid dirty outdoor air,red
80,26.2,5b7a94b86a15c1ae2d8a9a0b,Teluknaga,city,Broken clouds,Indonesia,Sensitive groups should reduce outdoor exercise,orange,78,-6.09889,106.63806,pm25,1009,West Java,28,Asia/Jakarta,https://website-api.airvisual.com/v1/cities/5b7a94b86a15c1ae2d8a9a0b?units.temperature=celsius&units.distance=kilometer&AQI=US&language=id,330,20.5,Close your windows to avoid dirty outdoor air,red
68,20.1,5b7a94b86a15c1ae2d8a99cc,Gatak,city,Rain,Indonesia,Sensitive groups should reduce outdoor exercise,orange,79,-7.59083,110.70444,pm25,1009,Central Java,29,Asia/Jakarta,https://website-api.airvisual.com/v1/cities/5b7a94b86a15c1ae2d8a99cc?units.temperature=celsius&units.distance=kilometer&AQI=US&language=id,210,11.2,Close your windows to avoid dirty outdoor air,red
64,18.1,5b7a94b86a15c1ae2d8a9988,Trucuk,city,Rain,Indonesia,Sensitive groups should reduce outdoor exercise,orange,79,-7.71833,110.65889,pm25,1009,Central Java,29,Asia/Jakarta,https://website-api.airvisual.com/v1/cities/5b7a94b86a15c1ae2d8a9988?units.temperature=celsius&units.distance=kilometer&AQI=US&language=id,210,11.2,Close your windows to avoid dirty outdoor air,red
53,13.1,5b7a94b86a15c1ae2d8a99b5,Gombong,city,Rain,Indonesia,Sensitive groups should reduce outdoor exercise,orange,78,-7.60722,109.51417,pm25,1009,Central Java,28,Asia/Jakarta,https://website-api.airvisual.com/v1/cities/5b7a94b86a15c1ae2d8a99b5?units.temperature=celsius&units.distance=kilometer&AQI=US&language=id,185,5.8,Close your windows to avoid dirty outdoor air,red
91,31.2,5b7a94b86a15c1ae2d8a99e9,Lembang,city,Rain,Indonesia,Sensitive groups should reduce outdoor exercise,orange,74,-6.81167,107.6175,pm25,1009,West Java,23,Asia/Jakarta,https://website-api.airvisual.com/v1/cities/5b7a94b86a15c1ae2d8a99e9?units.temperature=celsius&units.distance=kilometer&AQI=US&language=id,287,6,Close your windows to avoid dirty outdoor air,red
13,3.1,5b7a94b86a15c1ae2d8a9a0d,Sungai Penuh,city,Broken clouds,Indonesia,Enjoy outdoor activities,green,77,-2.0561,101.3913,pm25,1011,Jambi,22,Asia/Jakarta,https://website-api.airvisual.com/v1/cities/5b7a94b86a15c1ae2d8a9a0d?units.temperature=celsius&units.distance=kilometer&AQI=US&language=id,27,5.7,"Open your windows to bring clean, fresh air indoors",green
17,4.1,5b7a94b96a15c1ae2d8a9a16,Nabire,city,Few clouds,Indonesia,Enjoy outdoor activities,green,58,-3.35989,135.50074,pm25,1007,Papua,31,Asia/Jayapura,https://website-api.airvisual.com/v1/cities/5b7a94b96a15c1ae2d8a9a16?units.temperature=celsius&units.distance=kilometer&AQI=US&language=id,310,6.8,"Open your windows to bring clean, fresh air indoors",green
91,31.2,5b7a94b86a15c1ae2d8a99ee,Karangsembung,city,Rain,Indonesia,Sensitive groups should reduce outdoor exercise,orange,72,-6.8487,108.6422,pm25,1009,West Java,28,Asia/Jakarta,https://website-api.airvisual.com/v1/cities/5b7a94b86a15c1ae2d8a99ee?units.temperature=celsius&units.distance=kilometer&AQI=US&language=id,137,3.1,Close your windows to avoid dirty outdoor air,red
70,21.1,5b7a94b86a15c1ae2d8a99a8,Kudus,city,Broken clouds,Indonesia,Sensitive groups should reduce outdoor exercise,orange,66,-6.8048,110.8405,pm25,1009,Central Java,29,Asia/Jakarta,https://website-api.airvisual.com/v1/cities/5b7a94b86a15c1ae2d8a99a8?units.temperature=celsius&units.distance=kilometer&AQI=US&language=id,320,11.2,Close your windows to avoid dirty outdoor air,red
64,18.1,5b7a94b86a15c1ae2d8a9992,Selogiri,city,Rain,Indonesia,Sensitive groups should reduce outdoor exercise,orange,79,-7.78333,110.86667,pm25,1009,Central Java,29,Asia/Jakarta,https://website-api.airvisual.com/v1/cities/5b7a94b86a15c1ae2d8a9992?units.temperature=celsius&units.distance=kilometer&AQI=US&language=id,210,11.2,Close your windows to avoid dirty outdoor air,red
70,21.1,5b7a94b86a15c1ae2d8a99ff,Caringin,city,Broken clouds,Indonesia,Sensitive groups should reduce outdoor exercise,orange,78,-6.70611,106.82139,pm25,1009,West Java,28,Asia/Jakarta,https://website-api.airvisual.com/v1/cities/5b7a94b86a15c1ae2d8a99ff?units.temperature=celsius&units.distance=kilometer&AQI=US&language=id,330,20.5,Close your windows to avoid dirty outdoor air,red
72,22.1,5b7a94b86a15c1ae2d8a9983,Weleri,city,Broken clouds,Indonesia,Sensitive groups should reduce outdoor exercise,orange,66,-6.9713,110.0666,pm25,1009,Central Java,29,Asia/Jakarta,https://website-api.airvisual.com/v1/cities/5b7a94b86a15c1ae2d8a9983?units.temperature=celsius&units.distance=kilometer&AQI=US&language=id,320,11.2,Close your windows to avoid dirty outdoor air,red
